,DCA License Number,License Type,License Expiration Date,License Status,License Creation Date,Industry,Business Name,Business Name 2,Address Building,Address Street Name,Secondary Address Street Name,Address City,Address State,Address ZIP,Contact Phone Number,Address Borough,Borough Code,Community Board,Council District,BIN,BBL,NTA,Census Tract,Detail,Longitude,Latitude,Location,year,age
0,1178405-DCA,Business,12/31/2023,Active,08/27/2004,Tobacco Retail Dealer,OLSEN NEWS CORP.,,,BROADWAY,WEST   40 STREET,NEW YORK,NY,10018,646-258-4324,Manhattan,1.0,105.0,3.0,,,,,,-73.98686541972873,40.75431708865135,"(40.75431708865135, -73.98686541972873)",2004,20
1,2016212-1-DCA,Business,12/31/2023,Active,12/05/2014,Tobacco Retail Dealer,ASTORIA CENTER INC,,4402,ASTORIA BLVD,,ASTORIA,NY,11103,347-668-4569,Queens,4.0,401.0,22.0,4012858.0,4007170029.0,QN70,141.0,,-73.9069268281986,40.76820158202948,"(40.76820158202948, -73.9069268281986)",2014,10
2,1217359-DCA,Business,12/31/2023,Active,01/11/2006,Tobacco Retail Dealer,"FLEUR, RONY ST",RON'S DELI GROCERY STORE,17024,JAMAICA AVE,,JAMAICA,NY,11432,7186589156,Queens,4.0,412.0,27.0,4217486.0,4102120009.0,QN61,444.0,,-73.7892842185725,40.70729121951161,"(40.70729121951161, -73.7892842185725)",2006,18
3,1435239-DCA,Business,12/31/2023,Active,06/22/2012,Tobacco Retail Dealer,PRESBYTERIAN 164 DELI CORP.,,1081,SAINT NICHOLAS AVE,,NEW YORK,NY,10032,212-568-3130,Manhattan,1.0,112.0,7.0,1062937.0,1021220116.0,MN36,245.0,,-73.94001991132355,40.83760200533997,"(40.83760200533997, -73.94001991132355)",2012,12
4,2045066-1-DCA,Business,12/31/2023,Active,10/26/2016,Tobacco Retail Dealer,A & M DELI & GRILL INC,,13202,JAMAICA AVE,,RICHMOND HILL,NY,11418,347-635-2975,Queens,4.0,409.0,29.0,4196340.0,4093400101.0,QN54,14202.0,,-73.82049747055868,40.70210984823282,"(40.70210984823282, -73.82049747055868)",2016,8
5,2095955-1-DCA,Business,12/31/2023,Active,07/15/2020,Tobacco Retail Dealer,SAMMY TOBACCO INC,,17001,JAMAICA AVE,,JAMAICA,NY,11432,929-257-9790,Queens,4.0,412.0,27.0,4209742.0,4098040012.0,,,,-73.78966321350295,40.70720407996868,"(40.70720407996868, -73.78966321350295)",2020,4
6,1369967-DCA,Business,12/31/2023,Active,09/08/2010,Tobacco Retail Dealer,"BECKFORD, ANNABELLE M",LUCKY STOP AND SHOP,549,NEW YORK AVE,,BROOKLYN,NY,11225,7183441300,Brooklyn,3.0,309.0,40.0,3106545.0,3047920051.0,BK60,806.0,,-73.94777999272682,40.66135183241761,"(40.66135183241761, -73.94777999272682)",2010,14
7,1282707-DCA,Business,12/31/2023,Active,04/23/2008,Tobacco Retail Dealer,BIG APPLE FORTUNES INC.,MAGAZINE CAFE,15,W 37TH ST,,NEW YORK,NY,10018,212-391-2004,Manhattan,1.0,105.0,4.0,1015967.0,1008390029.0,MN17,84.0,,-73.98397516909118,40.7506881676495,"(40.7506881676495, -73.98397516909118)",2008,16
8,1171563-DCA,Business,12/31/2023,Active,06/23/2004,Tobacco Retail Dealer,LIVONIA GROCERY CORP.,,933,LIVONIA AVE,,BROOKLYN,NY,11207,718-495-5449,Brooklyn,3.0,305.0,42.0,3329560.0,3040800051.0,BK82,1120.0,,-73.88261129884128,40.66646397586904,"(40.666463975869036, -73.88261129884128)",2004,20
9,2038369-1-DCA,Business,12/31/2023,Active,05/27/2016,Tobacco Retail Dealer,"JIGME & PHUNTSOK OF NYC, INC.",,7305,37TH RD,,JACKSON HEIGHTS,NY,11372,718-205-5022,Queens,4.0,403.0,25.0,4029791.0,4012840007.0,QN28,289.0,,-73.89224951334751,40.74716403096341,"(40.747164030963404, -73.89224951334751)",2016,8
10,2035915-1-DCA,Business,12/31/2023,Active,04/12/2016,Tobacco Retail Dealer,L STOP GOURMET DELI CORP.,,223,MONTROSE AVE,,BROOKLYN,NY,11206,347-889-6608,Brooklyn,3.0,301.0,34.0,3071163.0,3030540026.0,BK78,493.0,,-73.94021260626926,40.70762775314755,"(40.70762775314755, -73.94021260626926)",2016,8
11,2066822-1-DCA,Business,12/31/2023,Active,02/23/2018,Tobacco Retail Dealer,BISMILAH UNIDOS INC,THE DULCE ESQUINA,340,E 174TH ST,,BRONX,NY,10457,718-822-3430,Bronx,2.0,204.0,15.0,2009336.0,2028890044.0,BX01,165.0,,-73.90384567687367,40.84438989086224,"(40.84438989086224, -73.90384567687367)",2018,6
12,2043752-1-DCA,Business,12/31/2023,Active,09/15/2016,Tobacco Retail Dealer,SUNRISE GROCERY CORP,,6005,5TH AVE,,BROOKLYN,NY,11220,646-966-2245,Brooklyn,3.0,307.0,38.0,3143470.0,3057830008.0,BK32,122.0,,-74.01626473312574,40.63937133577816,"(40.63937133577816, -74.01626473312574)",2016,8
13,2097473-1-DCA,Business,12/31/2023,Active,01/11/2021,Tobacco Retail Dealer,FOUR KANYA INC,,105,E 23RD ST,,NEW YORK,NY,10010,5167109488,Manhattan,1.0,105.0,2.0,1018033.0,1008790001.0,,,,-73.98591195733462,40.74000585562675,"(40.74000585562675, -73.98591195733462)",2021,3
14,2095405-1-DCA,Business,12/31/2023,Active,03/17/2020,Tobacco Retail Dealer,BIG SIX DELI CORP,,6116,QUEENS BLVD,,WOODSIDE,NY,11377,7186060691,Queens,4.0,402.0,26.0,,,,,,-73.90310667137645,40.74133284470868,"(40.74133284470868, -73.90310667137645)",2020,4
15,2096021-1-DCA,Business,12/31/2023,Active,07/22/2020,Tobacco Retail Dealer,71 DELI & GRILL INC,,7102,NEW UTRECHT AVE,,BROOKLYN,NY,11228,7182136157,Brooklyn,3.0,311.0,43.0,3157768.0,3061800029.0,,,,-73.99908507523914,40.61882224576021,"(40.618822245760214, -73.99908507523914)",2020,4
16,2065365-1-DCA,Business,12/31/2023,Active,01/25/2018,Tobacco Retail Dealer,S & S CONVENIENCE STORE NY CORP,,3974,61ST ST,,WOODSIDE,NY,11377,716-3228486,Queens,4.0,402.0,26.0,4030037.0,4012930001.0,QN63,259.0,,-73.90349416208333,40.74537618967035,"(40.74537618967035, -73.90349416208333)",2018,6
17,2035498-1-DCA,Business,12/31/2023,Active,04/04/2016,Tobacco Retail Dealer,NEILL GOURMET DELI LLC,,1074,NEILL AVE,,BRONX,NY,10461,718-684-4050,Bronx,2.0,211.0,13.0,2048437.0,2042710001.0,BX49,250.0,,-73.85676889546612,40.85312685309395,"(40.85312685309395, -73.85676889546612)",2016,8
18,2038755-1-DCA,Business,12/31/2023,Active,06/07/2016,Tobacco Retail Dealer,NEIGHBORHOOD DELI & GROCERY NY INC.,,150,STANTON ST,,NEW YORK,NY,10002,212-780-9279,Manhattan,1.0,103.0,2.0,1004344.0,1003550071.0,MN27,3001.0,,-73.98552645046023,40.72056196123128,"(40.720561961231276, -73.98552645046023)",2016,8
19,2076683-1-DCA,Business,12/31/2023,Active,08/06/2018,Tobacco Retail Dealer,74TH ST GOURMET DELI THREE CORP,,7321,METROPOLITAN AVE,,MIDDLE VILLAGE,NY,11379,929-365-9916,Queens,4.0,405.0,30.0,4071500.0,4030580070.0,QN21,65702.0,,-73.87903443257981,40.71276458213765,"(40.71276458213765, -73.87903443257981)",2018,6
20,2105595-1-DCA,Business,12/31/2023,Active,04/27/2022,Tobacco Retail Dealer,BEACH 116 DELI & GROCERY CORP,,201,BEACH 116TH ST,,ROCKAWAY PARK,NY,11694,,Queens,4.0,414.0,32.0,4304450.0,4162120033.0,,,,-73.83735301512489,40.58006037261243,"(40.58006037261243, -73.83735301512489)",2022,2
21,2003115-797-DCA,Business,12/31/2023,Active,01/31/2014,Tobacco Retail Dealer,NEALTICAN DELI GROCERY CORP.,,1225,FLUSHING AVE,,BROOKLYN,NY,11237,718-909-1181,Brooklyn,3.0,301.0,34.0,3070658.0,3030020012.0,BK77,453.0,,-73.92373986983549,40.7077854493441,"(40.7077854493441, -73.92373986983549)",2014,10
22,2066573-1-DCA,Business,12/31/2023,Active,02/22/2018,Tobacco Retail Dealer,SUPERIOR GOURMET MARKET PLATE INC.,,480,10TH AVE,,NEW YORK,NY,10018,718-916-7595,Manhattan,1.0,104.0,3.0,1076126.0,1007340066.0,MN13,111.0,,-73.9978559556608,40.75633795026236,"(40.756337950262356, -73.9978559556608)",2018,6
23,1430243-DCA,Business,12/31/2023,Active,05/17/2012,Tobacco Retail Dealer,MOMTA GROCERY INC.,,5012,VERNON BLVD,,LONG IS CITY,NY,11101,3474586979,Queens,4.0,402.0,26.0,4430568.0,4000330004.0,QN31,7.0,,-73.95417601013015,40.74256943292526,"(40.74256943292526, -73.95417601013015)",2012,12
24,1363615-DCA,Business,12/31/2023,Active,07/22/2010,Tobacco Retail Dealer,PRESIDENT FOOD CORP.,,247,COLUMBIA ST,,BROOKLYN,NY,11231,718-855-1714,Brooklyn,3.0,306.0,39.0,3004694.0,3003480010.0,BK33,51.0,,-74.00337480968061,40.68361553250527,"(40.68361553250527, -74.00337480968061)",2010,14
25,1338055-DCA,Business,12/31/2023,Active,11/05/2009,Tobacco Retail Dealer,"SECOND AVENUE DELI MARKET, INC.",,81,2ND AVE,,NEW YORK,NY,10003,212-477-8181,Manhattan,1.0,103.0,2.0,1006592.0,1004600036.0,MN22,38.0,,-73.98914024809142,40.72658984697322,"(40.72658984697322, -73.98914024809142)",2009,15
26,2066860-1-DCA,Business,12/31/2023,Active,02/23/2018,Tobacco Retail Dealer,LOS MOROCHOS GROCERY STORE INC,,1973,WALTON AVE,,BRONX,NY,10453,7187165784,Bronx,2.0,205.0,14.0,2008266.0,2028540024.0,BX41,241.0,,-73.9081185651524,40.85165586715717,"(40.85165586715717, -73.9081185651524)",2018,6
27,2034869-1-DCA,Business,12/31/2023,Active,03/23/2016,Tobacco Retail Dealer,"LIC NEWSPAPER STORE, INC",,2123,49TH AVE,,LONG ISLAND CITY,NY,11101,7184828776,Queens,4.0,402.0,26.0,4436625.0,4000720255.0,QN31,19.0,,-73.94857173752693,40.74240512645203,"(40.74240512645203, -73.94857173752693)",2016,8
28,2079936-1-DCA,Business,12/31/2023,Active,11/14/2018,Tobacco Retail Dealer,PENN GAS & LUBE INC,,1130,PENNSYLVANIA AVE,,BROOKLYN,NY,11207,718-257-3844,Brooklyn,3.0,305.0,42.0,3327466.0,3044120029.0,BK82,1104.0,,-73.8865774396821,40.65313654797062,"(40.65313654797062, -73.8865774396821)",2018,6
29,1222735-DCA,Business,12/31/2023,Active,04/04/2006,Tobacco Retail Dealer,"LOS BROTHER GROCERY, CORP.",,608,NEW YORK AVE,,BROOKLYN,NY,11203,718-774-4800,Brooklyn,3.0,309.0,40.0,3106932.0,3048010037.0,BK60,804.0,,-73.94762270468097,40.65969116896318,"(40.65969116896318, -73.94762270468097)",2006,18
30,2066540-1-DCA,Business,12/31/2023,Active,02/22/2018,Tobacco Retail Dealer,BOLLA OPERATING CORP.,KINGS 2960 C-STORE,2960,86TH ST,,BROOKLYN,NY,11223,516-240865,Brooklyn,3.0,313.0,47.0,3194296.0,3071670094.0,BK26,386.0,,-73.97455507368646,40.59029551093588,"(40.59029551093588, -73.97455507368646)",2018,6
31,2077215-1-DCA,Business,12/31/2023,Active,08/20/2018,Tobacco Retail Dealer,M.F.V.S. INCORPORATED,,14577,FARMERS BLVD,,JAMAICA,NY,11434,718-723-2068,Queens,4.0,413.0,31.0,4285801.0,4133410034.0,QN03,320.0,,-73.76839839624587,40.66429801740357,"(40.66429801740357, -73.76839839624587)",2018,6
32,2066356-1-DCA,Business,12/31/2023,Active,02/20/2018,Tobacco Retail Dealer,S & M GROCERY CORP,,8901,ROOSEVELT AVE,,JACKSON HEIGHTS,NY,11372,718-779-0913,Queens,4.0,403.0,21.0,4036335.0,4014770049.0,QN28,277.0,,-73.87734215326783,40.74833485294691,"(40.74833485294691, -73.87734215326783)",2018,6
33,2039678-1-DCA,Business,12/31/2023,Active,06/29/2016,Tobacco Retail Dealer,"J.G.L. FINE FOODS, INC.",,1269,PROSPECT AVE,,BROOKLYN,NY,11218,718-851-6200,Brooklyn,3.0,307.0,39.0,3122572.0,3052770012.0,BK40,50202.0,,-73.97592980072676,40.65210027646288,"(40.65210027646288, -73.97592980072676)",2016,8
34,1269715-DCA,Business,12/31/2023,Active,10/04/2007,Tobacco Retail Dealer,"SUNFLOWER FOOD MARKET #2, INC.",,750,7TH AVE,,NEW YORK,NY,10019,212-331-5121,Manhattan,1.0,105.0,4.0,1024795.0,1010210026.0,MN17,125.0,,-73.98352513961923,40.760753085757045,"(40.760753085757045, -73.98352513961923)",2007,17
35,2105510-1-DCA,Business,12/31/2023,Active,04/25/2022,Tobacco Retail Dealer,EXOTIC SMOKES AND VAPE CORP.,,183A,MCCLEAN AVE,,STATEN ISLAND,NY,10305,9293531920,Staten Island,5.0,502.0,50.0,5107491.0,5031000023.0,,,,-74.06815453286526,40.59749419474449,"(40.59749419474449, -74.06815453286526)",2022,2
36,2105524-1-DCA,Business,12/31/2023,Active,04/25/2022,Tobacco Retail Dealer,FAMILY 1 DELI INC,,2278,FLATBUSH AVE,,BROOKLYN,NY,11234,9173327330,Brooklyn,3.0,318.0,46.0,3240566.0,3085090043.0,,,,-73.92795609312111,40.61453700955034,"(40.61453700955034, -73.92795609312111)",2022,2
37,2105598-1-DCA,Business,12/31/2023,Active,04/27/2022,Tobacco Retail Dealer,FOOD YOU DESIRE CORP,,8917,5TH AVE,,BROOKLYN,NY,11209,3472727225,Brooklyn,3.0,310.0,43.0,3154225.0,3060670004.0,,,,-74.02783348570989,40.61959291124509,"(40.61959291124509, -74.02783348570989)",2022,2
38,2066635-1-DCA,Business,12/31/2023,Active,02/23/2018,Tobacco Retail Dealer,SWETA ARORA AND SATINDER ARORA,39TH BODEGA,269,W 39TH ST,,NEW YORK,NY,10018,212-840-6950,Manhattan,1.0,105.0,3.0,1014496.0,1007890007.0,MN17,113.0,,-73.99013544337123,40.75489930122157,"(40.75489930122157, -73.99013544337123)",2018,6
39,2105522-1-DCA,Business,12/31/2023,Active,04/25/2022,Tobacco Retail Dealer,HUNTS POINT DELI CORP,,1331,SENECA AVE,,BRONX,NY,10474,9174718703,Bronx,2.0,202.0,17.0,2006383.0,2027610139.0,,,,-73.8862043005336,40.81907305325831,"(40.81907305325831, -73.8862043005336)",2022,2
40,2066337-1-DCA,Business,12/31/2023,Active,02/20/2018,Tobacco Retail Dealer,BIG APPLE SMOKE SHOP AND ORGANIC CORP,,3542,BROADWAY,,NEW YORK,NY,10031,9294229519,Manhattan,1.0,109.0,7.0,1061928.0,1020770001.0,MN04,229.0,,-73.95032779261946,40.82657590377374,"(40.82657590377374, -73.95032779261946)",2018,6
41,2105523-1-DCA,Business,12/31/2023,Active,04/25/2022,Tobacco Retail Dealer,5 FINGERBOARD GAS CORP,,5,FINGERBOARD RD,,STATEN ISLAND,NY,10305,7186821421,Staten Island,5.0,501.0,49.0,5043104.0,5028640057.0,,,,-74.06274980545506,40.609253239252695,"(40.609253239252695, -74.06274980545506)",2022,2
42,2017062-1-DCA,Business,12/31/2023,Active,01/06/2015,Tobacco Retail Dealer,AVENUE A DELI & FOOD INC.,,24,AVENUE A,,NEW YORK,NY,10009,212-539-0151,Manhattan,1.0,103.0,2.0,1004986.0,1003980066.0,MN22,3002.0,,-73.98571351193591,40.72304324626938,"(40.72304324626938, -73.98571351193591)",2015,9
43,1325387-DCA,Business,12/31/2023,Active,07/09/2009,Tobacco Retail Dealer,"KACHALIA, VARSHA","KACHALIA, VARSHA",N/E/C,BROADWAY,WEST   48 STREET,NEW YORK,NY,10036,516-395-7784,Manhattan,1.0,105.0,4.0,,,,,,-73.98483562074706,40.76011648520396,"(40.76011648520396, -73.98483562074706)",2009,15
44,2006847-1497-DCA,Business,12/31/2023,Active,04/24/2014,Tobacco Retail Dealer,13TH AV MINIMART INC,,7912,13TH AVE,,BROOKLYN,NY,11228,7184911606,Brooklyn,3.0,310.0,43.0,3162508.0,3062670041.0,BK30,148.0,,-74.00994516633249,40.617896824198816,"(40.617896824198816, -74.00994516633249)",2014,10
45,2019266-2-DCA,Business,12/31/2024,Active,03/10/2015,Tobacco Retail Dealer,I LOVE MY DELI GROCERY INC,,200,RHINE AVE,,STATEN ISLAND,NY,10304,917-892-4603,Staten Island,5.0,501.0,49.0,5043692.0,5029040004.0,SI08,40.0,,-74.08917780605738,40.60911774669653,"(40.60911774669653, -74.08917780605738)",2015,9
46,2037005-1-DCA,Business,12/31/2023,Active,05/03/2016,Tobacco Retail Dealer,251 LA BODEGUITA GROCERY CORP,,251,E 119TH ST,,NEW YORK,NY,10035,917-472-7282,Manhattan,1.0,111.0,8.0,1054557.0,1017840021.0,MN34,194.0,,-73.93745018528024,40.79941335946391,"(40.799413359463905, -73.93745018528024)",2016,8
47,2080904-1-DCA,Business,12/31/2023,Active,12/26/2018,Tobacco Retail Dealer,BOLLA OPERATING CORP.,,10409,ATLANTIC AVE,,RICHMOND HILL,NY,11418,516-240865,Queens,4.0,409.0,32.0,4195383.0,4093130051.0,QN54,12602.0,,-73.84080510008324,40.69043876328576,"(40.690438763285755, -73.84080510008324)",2018,6
48,1450211-DCA,Business,12/31/2023,Active,11/15/2012,Tobacco Retail Dealer,ARSHAK CORP.,,262,NEPTUNE AVE,,BROOKLYN,NY,11235,718-769-8891,Brooklyn,3.0,313.0,48.0,3244449.0,3086650558.0,BK19,364.0,,-73.96296275912128,40.58130862437012,"(40.581308624370116, -73.96296275912128)",2012,12
49,2078998-1-DCA,Business,12/31/2023,Active,10/11/2018,Tobacco Retail Dealer,MUNCHIES DELI GROCERY CORP,,1215,GRAND CONCOURSE,,BRONX,NY,10452,718-410-0200,Bronx,2.0,204.0,16.0,2002847.0,2024640001.0,BX63,197.0,,-73.91683940191054,40.835411064767534,"(40.835411064767534, -73.91683940191054)",2018,6
50,2066772-1-DCA,Business,12/31/2023,Active,02/23/2018,Tobacco Retail Dealer,AVADH CONVENIENCE INC,,3714,BROADWAY,,ASTORIA,NY,11103,6465104997,Queens,4.0,401.0,22.0,4010344.0,4006550039.0,QN70,59.0,,-73.9204029288955,40.75962337846785,"(40.75962337846785, -73.9204029288955)",2018,6
51,1057059-DCA,Business,12/31/2023,Active,12/01/2000,Tobacco Retail Dealer,"99 JOHN'S MARKET PLACE, INC.",JUBILEE MARKET PLACE,99,JOHN ST,,NEW YORK,NY,10038,212-964-4283,Manhattan,1.0,101.0,1.0,1087867.0,1000767502.0,MN25,1502.0,,-74.00616416668282,40.708005423405226,"(40.708005423405226, -74.00616416668282)",2000,24
52,1417381-DCA,Business,12/31/2023,Active,01/19/2012,Tobacco Retail Dealer,MR GROCERY CORP.,,164,IRVING AVE,,BROOKLYN,NY,11237,718-573-6513,Brooklyn,3.0,304.0,37.0,3074195.0,3032580029.0,BK77,431.0,,-73.91996658765233,40.70218631045002,"(40.70218631045002, -73.91996658765233)",2012,12
53,2114917-2-DCA,Business,12/31/2024,Active,07/07/2023,Tobacco Retail Dealer,J & P GROCERY FOOD CENTER CORP,,2015,NEW HAVEN AVE,,FAR ROCKAWAY,NY,11691,3476640835,Queens,4.0,414.0,31.0,4300972.0,4157600023.0,,,,-73.75402717307344,40.60074530545484,"(40.600745305454836, -73.75402717307344)",2023,1
54,1434523-DCA,Business,12/31/2023,Active,06/15/2012,Tobacco Retail Dealer,BOLLA OPERATING CORP.,KINGS HYLAN C-STORE,2150,HYLAN BLVD,,STATEN ISLAND,NY,10306,516-240865,Staten Island,5.0,502.0,50.0,5053545.0,5036900001.0,SI45,11202.0,,-74.1020816469481,40.57817584934895,"(40.578175849348945, -74.1020816469481)",2012,12
55,2070133-1-DCA,Business,12/31/2023,Active,04/27/2018,Tobacco Retail Dealer,NEW GREEN APPLE GOURMET CORP,,375,GRAHAM AVE,,BROOKLYN,NY,11211,929-239-6755,Brooklyn,3.0,301.0,34.0,3068602.0,3027540022.0,BK90,497.0,,-73.94460616506713,40.715831302183744,"(40.715831302183744, -73.94460616506713)",2018,6
56,2042351-1-DCA,Business,12/31/2023,Active,08/12/2016,Tobacco Retail Dealer,"107 GROCERY DELI, CORP",,10701,37TH AVE,,CORONA,NY,11368,7184760699,Queens,4.0,403.0,21.0,4043546.0,4017490055.0,QN26,381.0,,-73.86110046026995,40.75394315079688,"(40.75394315079688, -73.86110046026995)",2016,8
57,2065136-1-DCA,Business,12/31/2023,Active,01/19/2018,Tobacco Retail Dealer,SOUNDVIEW 99 PLUS INC,,253,SOUNDVIEW AVE,,BRONX,NY,10473,9175205584,Bronx,2.0,209.0,18.0,2020193.0,2034550143.0,BX09,2.0,,-73.85571856214723,40.81074712504548,"(40.81074712504548, -73.85571856214723)",2018,6
58,2079083-1-DCA,Business,12/31/2023,Active,10/15/2018,Tobacco Retail Dealer,116 GREENE BITES CORP,,116,DEKALB AVE,,BROOKLYN,NY,11201,718-522-4455,Brooklyn,3.0,302.0,35.0,3058663.0,3020960030.0,BK68,33.0,,-73.97783453319394,40.6897919267245,"(40.6897919267245, -73.97783453319394)",2018,6
59,1098341-DCA,Business,12/31/2023,Active,12/17/2001,Tobacco Retail Dealer,HONISH DELI GROCERY INC.,,18246,HILLSIDE AVE,,JAMAICA,NY,11432,718-523-0396,Queens,4.0,412.0,27.0,4212432.0,4099190034.0,QN61,470.0,,-73.77942710897327,40.71370100775879,"(40.71370100775879, -73.77942710897327)",2001,23
60,2008143-1757-DCA,Business,12/31/2023,Active,05/15/2014,Tobacco Retail Dealer,NEW PARK SLOPE GROCERY AND CONVENIENT STORE INC,,597,4TH AVE,,BROOKLYN,NY,11215,347-987-3403,Brooklyn,3.0,307.0,38.0,3008934.0,3006280072.0,BK37,143.0,,-73.99328470533011,40.665000321341566,"(40.665000321341566, -73.99328470533011)",2014,10
61,2038681-1-DCA,Business,12/31/2023,Active,06/06/2016,Tobacco Retail Dealer,MAYPOLE NYC CORP,MAYPOLE NYC CORP,17945,HILLSIDE AVE,,JAMAICA,NY,11432,6465787268,Queens,4.0,408.0,24.0,4212921.0,4099370042.0,QN06,466.0,,-73.78322120339989,40.712802440663125,"(40.712802440663125, -73.78322120339989)",2016,8
62,2098012-2-DCA,Business,12/31/2024,Active,03/10/2021,Tobacco Retail Dealer,RAVENSWOOD GOURMET CORP,,2408,34TH AVE,,ASTORIA,NY,11106,7185000125,Queens,4.0,401.0,26.0,4006436.0,4005620001.0,,,,-73.93137071625412,40.76159841610568,"(40.76159841610568, -73.93137071625412)",2021,3
63,1369327-DCA,Business,12/31/2023,Active,09/02/2010,Tobacco Retail Dealer,SANTIAGO DELI FOOD CORP.,,3415,BROADWAY,,NEW YORK,NY,10031,212-491-0668,Manhattan,1.0,109.0,7.0,1062301.0,1020870034.0,MN04,225.0,,-73.95336586190652,40.82245735304772,"(40.82245735304772, -73.95336586190652)",2010,14
64,2079117-1-DCA,Business,12/31/2023,Active,10/16/2018,Tobacco Retail Dealer,MADURO CIGAR LOUNGE INC,,1969,SOUTHERN BLVD,,BRONX,NY,10460,347-466-8110,Bronx,2.0,206.0,17.0,2013088.0,2031170001.0,BX17,36501.0,,-73.88559575935314,40.84310517844355,"(40.84310517844355, -73.88559575935314)",2018,6
65,2030655-1-DCA,Business,12/31/2023,Active,11/20/2015,Tobacco Retail Dealer,"GREENBERG, JOEL",,S/E/C,WEST   34 STREET,6 AVENUE,NEW YORK,NY,10001,917-689-9177,Manhattan,1.0,105.0,4.0,,,,,,-73.98776859948752,40.74978835571634,"(40.74978835571634, -73.98776859948752)",2015,9
66,2060297-2-DCA,Business,12/31/2024,Active,11/03/2017,Tobacco Retail Dealer,"7-ELEVEN, INC.",7 Eleven Store #38310H,88,GREENWICH ST,,NEW YORK,NY,10006,757-869-0503,Manhattan,1.0,101.0,1.0,1000794.0,1000187501.0,MN25,13.0,,-74.01370610695912,40.70773029611131,"(40.70773029611131, -74.01370610695912)",2017,7
67,2065539-1-DCA,Business,12/31/2023,Active,01/31/2018,Tobacco Retail Dealer,559 SMOKE SHOP INC,,559,4TH AVE,,BROOKLYN,NY,11215,718-404-7897,Brooklyn,3.0,307.0,39.0,3023892.0,3010470001.0,BK37,141.0,,-73.99214912495523,40.66622442041491,"(40.66622442041491, -73.99214912495523)",2018,6
68,2096980-1-DCA,Business,12/31/2023,Active,11/19/2020,Tobacco Retail Dealer,BOLLA OPERATING CORP.,BOLLA 61-19 FRESH MEADOW C-STORE,17312,HORACE HARDING EXPY,,FRESH MEADOWS,NY,11365,516-240865,Queens,4.0,408.0,24.0,4149071.0,4069020018.0,,,,-73.79585193392555,40.73803344990079,"(40.73803344990079, -73.79585193392555)",2020,4
69,1294757-DCA,Business,12/31/2023,Active,08/06/2008,Tobacco Retail Dealer,LUCKY CORONA INC.,,10301,ROOSEVELT AVE,,CORONA,NY,11368,718-335-6978,Queens,4.0,403.0,21.0,4044394.0,4017700102.0,QN26,405.0,,-73.86258144552865,40.7498909308804,"(40.7498909308804, -73.86258144552865)",2008,16
70,1070411-DCA,Business,12/31/2023,Active,12/28/2000,Tobacco Retail Dealer,"WEST 53RD GOURMET, INC.",,1301,AVENUE OF THE AMERICAS,,NEW YORK,NY,10019,212-643-1200,Manhattan,1.0,105.0,4.0,1023161.0,1010050029.0,MN17,131.0,,-73.97945680950716,40.76124374118634,"(40.76124374118634, -73.97945680950716)",2000,24
71,1173675-DCA,Business,12/31/2023,Active,07/13/2004,Tobacco Retail Dealer,"JUMUNA, INC.",,1225,FULTON ST,,BROOKLYN,NY,11216,718-783-3977,Brooklyn,3.0,303.0,36.0,3052983.0,3018420059.0,BK75,245.0,,-73.95258895771543,40.680589309344256,"(40.680589309344256, -73.95258895771543)",2004,20
72,2096618-1-DCA,Business,12/31/2023,Active,10/09/2020,Tobacco Retail Dealer,DELI ON THE TERRACE CORP,,2950,RICHMOND TER,,STATEN ISLAND,NY,10303,6467322392,Staten Island,5.0,501.0,49.0,5027699.0,5012240016.0,,,,-74.15842562596855,40.6368122551178,"(40.636812255117796, -74.15842562596855)",2020,4
73,1064555-DCA,Business,12/31/2023,Active,10/18/2000,Tobacco Retail Dealer,Indu K Desai,,,BROADWAY,WEST   66 STREET,NEW YORK,NY,10023,,Manhattan,1.0,107.0,6.0,,,,,,-73.98222574060378,40.77387549830657,"(40.77387549830657, -73.98222574060378)",2000,24
74,1043017-DCA,Business,12/31/2023,Active,09/18/2000,Tobacco Retail Dealer,COLUMBUS AVENUE FOOD CORP.,,476,COLUMBUS AVE,,NEW YORK,NY,10024,2128750121,Manhattan,1.0,107.0,6.0,1032074.0,1012130035.0,MN12,169.0,,-73.97371174947916,40.78439718814457,"(40.78439718814457, -73.97371174947916)",2000,24
75,2095581-1-DCA,Business,12/31/2023,Active,03/31/2020,Tobacco Retail Dealer,BANI FOOD CENTER CORP,BANI MINI MART,1121,GREENE AVE,,BROOKLYN,NY,11221,347-240-0504,Brooklyn,3.0,304.0,34.0,3074994.0,3032840028.0,,,,-73.92368732376343,40.69382278438541,"(40.693822784385404, -73.92368732376343)",2020,4
76,1122815-DCA,Business,12/31/2023,Active,09/12/2002,Tobacco Retail Dealer,"KHURANA, RAJIVE",7- ELEVEN,8164,LEFFERTS BLVD,,KEW GARDENS,NY,11415,7188054588,Queens,4.0,409.0,29.0,4079569.0,4033320024.0,QN60,775.0,,-73.8309234168928,40.70805708273513,"(40.70805708273513, -73.8309234168928)",2002,22
77,2090464-2-DCA,Business,12/31/2024,Active,09/12/2019,Tobacco Retail Dealer,AMEEN DELI CORP.,,1776,AMSTERDAM AVE,,NEW YORK,NY,10031,,Manhattan,1.0,109.0,7.0,1061989.0,1020790036.0,MN04,233.0,,-73.94631304460808,40.82701874848621,"(40.82701874848621, -73.94631304460808)",2019,5
78,2105599-1-DCA,Business,12/31/2023,Active,04/27/2022,Tobacco Retail Dealer,RAMS DELI AND PIZZA INC,,574,E FORDHAM RD,,BRONX,NY,10458,9178012211,Bronx,2.0,206.0,15.0,2094651.0,2030670048.0,,,,,,,2022,2
79,2007480-1595-DCA,Business,12/31/2023,Active,05/05/2014,Tobacco Retail Dealer,KATONAH FOOD MARKET CORP.,,4265,KATONAH AVE,,BRONX,NY,10470,646-409-2424,Bronx,2.0,212.0,11.0,2019046.0,2033750052.0,BX62,44902.0,,-73.86717408359885,40.89742220957901,"(40.89742220957901, -73.86717408359885)",2014,10
80,2105596-1-DCA,Business,12/31/2023,Active,04/27/2022,Tobacco Retail Dealer,NY1 GRILL AND DELI INC,,1983,AMSTERDAM AVE,,NEW YORK,NY,10032,9176885756,Manhattan,1.0,112.0,7.0,1062522.0,1021080073.0,,,,-73.94146174706842,40.8336256591498,"(40.8336256591498, -73.94146174706842)",2022,2
81,1370251-DCA,Business,12/31/2023,Active,09/13/2010,Tobacco Retail Dealer,"PATEL, ALKA",ALKA NEWSTAND,N/W/C,GREENWICH ST,Barclay Street,NEW YORK,NY,10007,347-645-3740,Manhattan,1.0,101.0,1.0,1001416.0,1001280002.0,,,,-74.0116981375378,40.71375527141754,"(40.71375527141754, -74.0116981375378)",2010,14
82,1187467-DCA,Business,12/31/2023,Active,01/11/2005,Tobacco Retail Dealer,"JAFRI, SYED",LUCKY NEWS STAND & LOTTO,2472,86TH ST,,BROOKLYN,NY,11214,3472606270,Brooklyn,3.0,311.0,47.0,3185635.0,3068660041.0,BK29,300.0,,-73.98776394949685,40.59825759358873,"(40.59825759358873, -73.98776394949685)",2005,19
83,1069771-DCA,Business,12/31/2023,Active,12/20/2000,Tobacco Retail Dealer,"TAVERAS, DOLORES G",,10115,MARTENSE AVE,,CORONA,NY,11368,718-760-8754,Queens,4.0,404.0,21.0,4461911.0,4019390054.0,QN25,44301.0,,-73.85763761718188,40.73942192669203,"(40.73942192669203, -73.85763761718188)",2000,24
84,2103099-2-DCA,Business,12/31/2024,Active,12/14/2021,Tobacco Retail Dealer,SENECA FINEST DELI & GROCERY INC,,802,SENECA AVE,,RIDGEWOOD,NY,11385,3479160989,Queens,4.0,405.0,34.0,4082736.0,4034610024.0,,,,-73.90533943441598,40.70140942023485,"(40.70140942023485, -73.90533943441598)",2021,3
85,2065395-1-DCA,Business,12/31/2023,Active,01/26/2018,Tobacco Retail Dealer,DEAN ORGANIC MARKET INC,,486,DEAN ST,,BROOKLYN,NY,11217,718-238-1000,Brooklyn,3.0,308.0,35.0,3027812.0,3011360008.0,BK64,161.0,,-73.97376677467827,40.68139756029208,"(40.681397560292076, -73.97376677467827)",2018,6
86,1275067-DCA,Business,12/31/2023,Active,12/31/2007,Tobacco Retail Dealer,"DON JUAN DELI & GROCERY, INC.",,110,FORSYTH ST,,NEW YORK,NY,10002,212-925-7370,Manhattan,1.0,103.0,1.0,1005583.0,1004190040.0,MN27,18.0,,-73.9925469493258,40.7189706693982,"(40.718970669398196, -73.9925469493258)",2007,17
87,1329093-DCA,Business,12/31/2023,Active,08/12/2009,Tobacco Retail Dealer,VANESSA FOODS CORP.,,5218,108TH ST,,CORONA,NY,11368,718-592-5993,Queens,4.0,404.0,21.0,4442983.0,4019430060.0,QN25,439.0,,-73.85486892774392,40.7431485927324,"(40.743148592732396, -73.85486892774392)",2009,15
88,2103522-1-DCA,Business,12/31/2023,Active,01/19/2022,Tobacco Retail Dealer,A.S. CANDY & GROCERY INC.,,9201A,165TH ST,,JAMAICA,NY,11433,7188802145,Queens,4.0,412.0,27.0,4216215.0,4101550001.0,,,,-73.79471882165248,40.705250695192845,"(40.705250695192845, -73.79471882165248)",2022,2
89,2034446-1-DCA,Business,12/31/2023,Active,03/15/2016,Tobacco Retail Dealer,BRANDARE INC,FILL YOUR BELLY DELI,282,MANOR RD,,STATEN ISLAND,NY,10314,7189813223,Staten Island,5.0,501.0,50.0,5010136.0,5003640079.0,SI07,151.0,,-74.12387607652009,40.62129444030949,"(40.62129444030949, -74.12387607652009)",2016,8
90,1245551-DCA,Business,12/31/2023,Active,12/22/2006,Tobacco Retail Dealer,"FERNANDEZ, MARILYN",J & F MINI MARKET,2980,FULTON ST,,BROOKLYN,NY,11208,718-277-6188,Brooklyn,3.0,305.0,37.0,3088003.0,3039540025.0,BK82,1170.0,,-73.88485547323533,40.67987173897193,"(40.67987173897193, -73.88485547323533)",2006,18
91,2009535-2027-DCA,Business,12/31/2023,Active,06/12/2014,Tobacco Retail Dealer,J.A.M.W. DELI & GROCERY INC,HILL TOP DELI,1253,CASTLE HILL AVE,,BRONX,NY,10462,7182391100,Bronx,2.0,209.0,18.0,2026570.0,2038130042.0,BX59,92.0,,-73.85134437015763,40.83316868419078,"(40.83316868419078, -73.85134437015763)",2014,10
92,2096682-1-DCA,Business,12/31/2023,Active,10/16/2020,Tobacco Retail Dealer,EL RINCON DEL TABACO INC,,4441,BROADWAY,,NEW YORK,NY,10040,6467259400,Manhattan,1.0,112.0,10.0,1064465.0,1021800505.0,,,,-73.93255208623478,40.85688767546475,"(40.85688767546475, -73.93255208623478)",2020,4
93,2107732-1-DCA,Business,12/31/2023,Active,07/26/2022,Tobacco Retail Dealer,2059 FULTON DELI CORPORATION,,2059,FULTON ST,,BROOKLYN,NY,11233,9174433117,Brooklyn,3.0,316.0,37.0,3042005.0,3015420001.0,,,,-73.9105061929483,40.6782723868978,"(40.678272386897795, -73.9105061929483)",2022,2
94,2107679-1-DCA,Business,12/31/2023,Active,07/22/2022,Tobacco Retail Dealer,JAY KUMAR ENTERPRISE INC.,7 ELEVEN STORE #34248B,1440,FOREST AVE,,STATEN ISLAND,NY,10302,7184907007,Staten Island,5.0,501.0,49.0,5106785.0,5003930011.0,,,,-74.13649782837778,40.6246370302548,"(40.6246370302548, -74.13649782837778)",2022,2
95,2107900-1-DCA,Business,12/31/2023,Active,08/03/2022,Tobacco Retail Dealer,YS DELI GROCERY CORP,,211,CYPRESS AVE,,RIDGEWOOD,NY,11385,,Queens,4.0,405.0,34.0,4081572.0,4034170081.0,,,,-73.9196961698638,40.70811207115455,"(40.70811207115455, -73.9196961698638)",2022,2
96,2115104-2-DCA,Business,12/31/2024,Active,07/17/2023,Tobacco Retail Dealer,GORKHA MINI MART INC,,8542,GRAND AVE,,ELMHURST,NY,11373,5164743230,Queens,4.0,404.0,30.0,4065266.0,4028750029.0,,,,-73.88099924626472,40.73559479958696,"(40.73559479958696, -73.88099924626472)",2023,1
97,2115103-2-DCA,Business,12/31/2024,Active,07/17/2023,Tobacco Retail Dealer,SAKMAN DELI ON 4TH CORP.,,6821,4TH AVE,,BROOKLYN,NY,11220,,Brooklyn,3.0,310.0,47.0,3145251.0,3058640002.0,,,,-74.02330745255102,40.63511021472844,"(40.63511021472844, -74.02330745255102)",2023,1
98,2107756-1-DCA,Business,12/31/2023,Active,07/26/2022,Tobacco Retail Dealer,1080 FAMILY MINIMARKET CORP,,1080,NOSTRAND AVE,,BROOKLYN,NY,11225,6468071459,Brooklyn,3.0,309.0,40.0,3035369.0,3013290048.0,,,,-73.95074974176741,40.66168526059758,"(40.66168526059758, -73.95074974176741)",2022,2
99,2107728-1-DCA,Business,12/31/2023,Active,07/26/2022,Tobacco Retail Dealer,STAR SERVICE STATION INC,,22820,MERRICK BLVD,,LAURELTON,NY,11413,718-276-7064,Queens,4.0,413.0,31.0,4282539.0,4131550035.0,,,,-73.74194757356761,40.67660150414049,"(40.67660150414049, -73.74194757356761)",2022,2
100,2107874-1-DCA,Business,12/31/2023,Active,08/02/2022,Tobacco Retail Dealer,DAVIEL DELI GROCERY CORP,,740,GERARD AVE,,BRONX,NY,10451,7184012939,Bronx,2.0,204.0,8.0,2002897.0,2024730043.0,,,,-73.92656146779206,40.824718768167735,"(40.824718768167735, -73.92656146779206)",2022,2
101,1387138-DCA,Business,12/31/2024,Active,04/08/2011,Tobacco Retail Dealer,BOLLA OPERATING CORP.,KINGS 3003 SERVICE STATION MOBILE,3003,CONEY ISLAND AVE,,BROOKLYN,NY,11235,516-240865,Brooklyn,3.0,313.0,48.0,3247996.0,3088110014.0,BK19,61003.0,,-73.960016884307,40.58304509681729,"(40.58304509681729, -73.960016884307)",2011,13
102,2010398-1-DCA,Business,12/31/2023,Active,07/07/2014,Tobacco Retail Dealer,Balram LLC,,S/W/C,CHURCH STREET,PARK PLACE,NEW YORK,NY,10007,347-754-9607,Manhattan,1.0,101.0,1.0,,,,,,-74.00925599630611,40.71325594707911,"(40.71325594707911, -74.00925599630611)",2014,10
103,2107873-1-DCA,Business,12/31/2023,Active,08/02/2022,Tobacco Retail Dealer,CAMPOS DELI GROCERY II CORP,,7020,20TH AVE,,BROOKLYN,NY,11204,7182341005,Brooklyn,3.0,311.0,47.0,3157413.0,3061730046.0,,,,-73.98899295995196,40.613524272066094,"(40.613524272066094, -73.98899295995196)",2022,2
104,2107699-1-DCA,Business,12/31/2023,Active,07/25/2022,Tobacco Retail Dealer,FIESTA FOOD MARKET INC.,,8065,LEFFERTS BLVD,,KEW GARDENS,NY,11415,3475313741,Queens,4.0,409.0,29.0,4445428.0,4033550101.0,,,,-73.82921329749237,40.70964103432341,"(40.709641034323404, -73.82921329749237)",2022,2
105,2096860-1-DCA,Business,12/31/2023,Active,11/05/2020,Tobacco Retail Dealer,JOY 116 FOOD CORP.,JOY FRUIT,11608,METROPOLITAN AVE,,RICHMOND HILL,NY,11418,7184677902,Queens,4.0,409.0,29.0,4079250.0,4033210001.0,,,,-73.83590241351132,40.707454949677086,"(40.707454949677086, -73.83590241351132)",2020,4
106,2107833-1-DCA,Business,12/31/2023,Active,07/29/2022,Tobacco Retail Dealer,VMAA INC,VIRAJ MART,4003,QUEENS BLVD,,SUNNYSIDE,NY,11104,9146025160,Queens,4.0,402.0,26.0,4002473.0,4001890005.0,,,,-73.92410644367234,40.74379966072605,"(40.743799660726054, -73.92410644367234)",2022,2
107,2107731-1-DCA,Business,12/31/2023,Active,07/26/2022,Tobacco Retail Dealer,HANDY CANDY INC,,350,5TH AVE,,NEW YORK,NY,10118,5162639884,Manhattan,1.0,105.0,4.0,1015862.0,1008350041.0,,,,-73.98469034437947,40.74827563149928,"(40.748275631499276, -73.98469034437947)",2022,2
108,2107760-1-DCA,Business,12/31/2023,Active,07/26/2022,Tobacco Retail Dealer,JOCHY CONVENIENCE STORES INC,,12609,MERRICK BLVD,,JAMAICA,NY,11434,7184134033,Queens,4.0,412.0,27.0,4269910.0,4124860004.0,,,,-73.76612350120776,40.68189846756793,"(40.68189846756793, -73.76612350120776)",2022,2
109,2107809-1-DCA,Business,12/31/2023,Active,07/28/2022,Tobacco Retail Dealer,AVE T KING GOURMET MINI MARKET CORP,,5819,AVENUE T,,BROOKLYN,NY,11234,9293271445,Brooklyn,3.0,318.0,46.0,3236236.0,3083800002.0,,,,-73.91843189697894,40.61530742254488,"(40.61530742254488, -73.91843189697894)",2022,2
110,2107701-1-DCA,Business,12/31/2023,Active,07/25/2022,Tobacco Retail Dealer,1709 DELI & GRILL CORP.,,1709,CHURCH AVE,,BROOKLYN,NY,11226,7186661536,Brooklyn,3.0,314.0,40.0,3116499.0,3050780039.0,,,,-73.9636457982606,40.64922600672808,"(40.64922600672808, -73.9636457982606)",2022,2
111,2107841-1-DCA,Business,12/31/2023,Active,08/01/2022,Tobacco Retail Dealer,4TH AV MINI MARKET CORP.,MINI MART CORP,8609,4TH AVE,,BROOKLYN,NY,11209,3472071540,Brooklyn,3.0,310.0,43.0,3153522.0,3060450006.0,,,,-74.0284578930657,40.62250772712897,"(40.62250772712897, -74.0284578930657)",2022,2
112,2070488-1-DCA,Business,12/31/2023,Active,05/03/2018,Tobacco Retail Dealer,MAHI 624 INC.,,624,5TH AVE,,BROOKLYN,NY,11215,718-788-0850,Brooklyn,3.0,307.0,38.0,3009002.0,3006310048.0,BK37,143.0,,-73.99144299788405,40.66326549911736,"(40.66326549911736, -73.99144299788405)",2018,6
113,2074115-1-DCA,Business,12/31/2023,Active,06/21/2018,Tobacco Retail Dealer,NEW HONG YUN GROCERY STORE INC,,6701,8TH AVE,,BROOKLYN,NY,11220,646-533-3212,Brooklyn,3.0,310.0,43.0,3142645.0,3057630010.0,BK30,12801.0,,-74.01380571739296,40.63139530518553,"(40.63139530518553, -74.01380571739296)",2018,6
114,1354759-DCA,Business,12/31/2023,Active,05/19/2010,Tobacco Retail Dealer,2278 DELI & GROCERY INC.,,2278,ADAM CLAYTON POWELL JR BLVD,,NEW YORK,NY,10030,917-507-0597,Manhattan,1.0,110.0,9.0,1058817.0,1019390036.0,MN03,226.0,,-73.94426750297592,40.81454577824675,"(40.81454577824675, -73.94426750297592)",2010,14
115,2044551-1-DCA,Business,12/31/2023,Active,10/07/2016,Tobacco Retail Dealer,SMOKE SCENE N VAPE CORP,,786,9TH AVE,,NEW YORK,NY,10019,212-265-1426,Manhattan,1.0,104.0,3.0,1025233.0,1010430002.0,MN15,133.0,,-73.98787411658247,40.76493661329169,"(40.76493661329169, -73.98787411658247)",2016,8
116,2017904-1-DCA,Business,12/31/2023,Active,02/03/2015,Tobacco Retail Dealer,STOP ONE FOOD MARKET INC,,748,10TH AVE,,NEW YORK,NY,10019,212-397-0749,Manhattan,1.0,104.0,3.0,1026704.0,1010600061.0,MN15,133.0,,-73.99139019016792,40.76521140387082,"(40.76521140387082, -73.99139019016792)",2015,9
117,2044719-1-DCA,Business,12/31/2023,Active,10/14/2016,Tobacco Retail Dealer,R&D DELI AND GRILL INC.,,1696,RICHMOND RD,,STATEN ISLAND,NY,10304,347-570-5582,Staten Island,5.0,502.0,50.0,5050604.0,5035310009.0,SI36,11401.0,,-74.10194676656356,40.58886423413445,"(40.58886423413445, -74.10194676656356)",2016,8
118,2016647-1-DCA,Business,12/31/2023,Active,12/19/2014,Tobacco Retail Dealer,31ST AVE. DELI CORP.,,5027,31ST AVE,,WOODSIDE,NY,11377,718-274-0906,Queens,4.0,401.0,22.0,4014149.0,4007530001.0,QN70,163.0,,-73.90821278667134,40.75718246603899,"(40.75718246603899, -73.90821278667134)",2014,10
119,1418883-DCA,Business,12/31/2023,Active,02/08/2012,Tobacco Retail Dealer,"COLONIAL DELI, INC.",,125,BAY RIDGE AVE,,BROOKLYN,NY,11220,718-921-6591,Brooklyn,3.0,310.0,43.0,3145100.0,3058610089.0,BK31,30.0,,-74.03082417446987,40.63722742117115,"(40.63722742117115, -74.03082417446987)",2012,12
120,2066722-1-DCA,Business,12/31/2023,Active,02/23/2018,Tobacco Retail Dealer,SKY CONVENIENCE INC,,9410,ROOSEVELT AVE,,JACKSON HEIGHTS,NY,11372,212-920-0391,Queens,4.0,404.0,21.0,4307493.0,4015890092.0,QN29,465.0,,-73.87208270235332,40.748872592757806,"(40.748872592757806, -73.87208270235332)",2018,6
121,2066339-1-DCA,Business,12/31/2023,Active,02/20/2018,Tobacco Retail Dealer,"PATEL, AMITA SHYAM",,N/E/C,2 AVENUE,EAST   62 STREET,NEW YORK,NY,10065,347-393-4828,Manhattan,1.0,108.0,5.0,,,,,,-73.96297391546207,40.76248848096064,"(40.762488480960634, -73.96297391546207)",2018,6
122,2010267-1-DCA,Business,12/31/2023,Active,07/02/2014,Tobacco Retail Dealer,IN & OUT TOBACCO DELI CORP,,1020,6TH AVE,,NEW YORK,NY,10018,917-702-1058,Manhattan,1.0,105.0,4.0,1015987.0,1008400001.0,MN17,84.0,,-73.98586602387003,40.752403882129606,"(40.752403882129606, -73.98586602387003)",2014,10
123,2115225-2-DCA,Business,12/31/2024,Active,07/20/2023,Tobacco Retail Dealer,SOUTH BEACH DELI CORP.,,125,OLYMPIA BLVD,,STATEN ISLAND,NY,10305,3477912944,Staten Island,5.0,502.0,50.0,5047892.0,5032560001.0,,,,-74.0727149053371,40.592361369073416,"(40.592361369073416, -74.0727149053371)",2023,1
124,1145991-DCA,Business,12/31/2023,Active,07/22/2003,Tobacco Retail Dealer,PROSPECT PARK FOOD CORP.,,155,PROSPECT PARK SW,,BROOKLYN,NY,11218,718-854-6983,Brooklyn,3.0,307.0,39.0,3122228.0,3052680094.0,BK40,50202.0,,-73.9733699123345,40.65497075412529,"(40.65497075412529, -73.9733699123345)",2003,21
125,2044927-1-DCA,Business,12/31/2023,Active,10/21/2016,Tobacco Retail Dealer,DANISH GOURMET INC,,721,2ND AVE,,NEW YORK,NY,10016,212-534-0808,Manhattan,1.0,106.0,4.0,1020359.0,1009190034.0,MN20,78.0,,-73.97374786937992,40.74773843129742,"(40.74773843129742, -73.97374786937992)",2016,8
126,1194753-DCA,Business,12/31/2023,Active,04/26/2005,Tobacco Retail Dealer,THE STOP & SHOP SUPERMARKET COMPANY LLC,STOP & SHOP #512,2795,RICHMOND AVE,,STATEN ISLAND,NY,10314,718-835-7900,Staten Island,5.0,502.0,51.0,5108454.0,5024400002.0,SI24,27702.0,,-74.16959473289356,40.57855715118557,"(40.578557151185564, -74.16959473289356)",2005,19
127,1107517-DCA,Business,12/31/2023,Active,04/25/2002,Tobacco Retail Dealer,GREENWICH VILLAGE FARM INC.,,33A,GREENWICH AVE,,NEW YORK,NY,10014,646-336-0431,Manhattan,1.0,102.0,3.0,1010852.0,1006110065.0,MN23,71.0,,-74.00023093446343,40.7350853758031,"(40.7350853758031, -74.00023093446343)",2002,22
128,1357659-DCA,Business,12/31/2023,Active,06/07/2010,Tobacco Retail Dealer,SG CONVENIENCE CORP.,,730,KINGS HWY,,BROOKLYN,NY,11223,718-627-6311,Brooklyn,3.0,315.0,44.0,3177526.0,3066640062.0,BK25,418.0,,-73.96526822000759,40.60624310062519,"(40.60624310062519, -73.96526822000759)",2010,14
129,2115096-1-DCA,Business,12/31/2023,Active,07/14/2023,Tobacco Retail Dealer,N & L GROCERY STORE INC,,1551,SHERIDAN AVE,,BRONX,NY,10457,3474312825,Bronx,2.0,204.0,16.0,2007854.0,2028210061.0,,,,-73.91108102453146,40.84201877747143,"(40.84201877747143, -73.91108102453146)",2023,1
130,2038245-1-DCA,Business,12/31/2023,Active,05/26/2016,Tobacco Retail Dealer,ANNADALE ROAD CORP,M & M BAGELS,849,ANNADALE RD,,STATEN ISLAND,NY,10312,718-966-6826,Staten Island,5.0,503.0,51.0,5080053.0,5062250003.0,,,,-74.17735741772759,40.54108696552374,"(40.54108696552374, -74.17735741772759)",2016,8
131,2046041-1-DCA,Business,12/31/2023,Active,11/30/2016,Tobacco Retail Dealer,PARK ONE ENTERPRISES INC.,,4602,5TH AVE,,BROOKLYN,NY,11220,718-492-4020,Brooklyn,3.0,307.0,38.0,3011854.0,3007560038.0,BK32,80.0,,-74.00809368852062,40.64726071317648,"(40.64726071317648, -74.00809368852062)",2016,8
132,1323665-DCA,Business,12/31/2023,Active,06/24/2009,Tobacco Retail Dealer,PMP CONVENIENCE CORP.,,11820,LIBERTY AVE,,S RICHMOND HL,NY,11419,718-738-2824,Queens,4.0,410.0,28.0,4204189.0,4095720009.0,QN55,106.0,,-73.82480262793301,40.68605680976229,"(40.68605680976229, -73.82480262793301)",2009,15
133,2115165-2-DCA,Business,12/31/2024,Active,07/18/2023,Tobacco Retail Dealer,AMG RETAIL I LLC,,1,E 233RD ST,,BRONX,NY,10470,9146995000,Bronx,2.0,212.0,11.0,2018714.0,2033630023.0,,,,-73.8769150566095,40.89550074900477,"(40.89550074900477, -73.8769150566095)",2023,1
134,1326859-DCA,Business,12/31/2023,Active,07/23/2009,Tobacco Retail Dealer,LORD OF KINGS  INC,,9612,SEAVIEW AVE,,BROOKLYN,NY,11236,718-251-5888,Brooklyn,3.0,318.0,46.0,3235258.0,3083280030.0,BK50,1028.0,,-73.89031834114205,40.633388688218304,"(40.633388688218304, -73.89031834114205)",2009,15
135,1373257-DCA,Business,12/31/2023,Active,10/01/2010,Tobacco Retail Dealer,"HUDSON GROUP (HG) RETAIL, LLC",HUDSON NEWS,,PENN STATION,,NEW YORK,NY,10001,2125631030,Manhattan,1.0,105.0,,1083026.0,1007810002.0,MN17,101.0,,-73.99212120686624,40.749994591761,"(40.749994591760995, -73.99212120686624)",2010,14
136,1301175-DCA,Business,12/31/2023,Active,10/06/2008,Tobacco Retail Dealer,JASWICK MART INC.,,456,bushwick ave,,BROOKLYN,NY,11206,718-443-2230,Brooklyn,3.0,304.0,34.0,3000000.0,3031380032.0,BK78,389.0,,-73.93739751897476,40.70179088543693,"(40.70179088543693, -73.93739751897476)",2008,16
137,2093388-1-DCA,Business,12/31/2023,Active,01/07/2020,Tobacco Retail Dealer,"PATEL, SURYA",,S/W/C,WALL STREET,WILLIAM STREET,NEW YORK,NY,10005,2019207063,Manhattan,1.0,101.0,1.0,,,,,,-74.00950391062128,40.70638029595102,"(40.70638029595102, -74.00950391062128)",2020,4
138,1374873-DCA,Business,12/31/2023,Active,10/19/2010,Tobacco Retail Dealer,HENG YUN GROCERY INC,,329,GRAND ST,,NEW YORK,NY,10002,212-431-9520,Manhattan,1.0,103.0,1.0,1004008.0,1003090014.0,MN27,16.0,,-73.99039716183842,40.71709858393529,"(40.71709858393529, -73.99039716183842)",2010,14
139,2066553-1-DCA,Business,12/31/2023,Active,02/22/2018,Tobacco Retail Dealer,68 SUTPHIN DELI AND GRILL INC,,8768,SUTPHIN BLVD,,JAMAICA,NY,11435,718-658-5482,Queens,4.0,412.0,24.0,4207058.0,4096900010.0,QN61,238.0,,-73.80943096152451,40.7051716914037,"(40.7051716914037, -73.80943096152451)",2018,6
140,1366155-DCA,Business,12/31/2023,Active,08/10/2010,Tobacco Retail Dealer,"HUDSON GROUP (HG) RETAIL, LLC",HUDSON NEWS,,PENN STATION,,NEW YORK,NY,10001,2125631030,Manhattan,1.0,105.0,,1083026.0,1007810002.0,MN17,101.0,,-73.99212120686624,40.749994591761,"(40.749994591760995, -73.99212120686624)",2010,14
141,1101629-DCA,Business,12/31/2023,Active,12/31/2003,Tobacco Retail Dealer,CENTRAL AUTO INC.,,13311,ROOSEVELT AVE,,FLUSHING,NY,11354,718-353-9000,Queens,4.0,407.0,20.0,4112273.0,4049730001.0,QN22,871.0,,-73.83405172443383,40.758312683272,"(40.758312683271996, -73.83405172443383)",2003,21
142,2043409-1-DCA,Business,12/31/2023,Active,09/07/2016,Tobacco Retail Dealer,"ALI, AHMED N",MARCY SMOKE SHOP PLUS,613,MARCY AVE,STORE # 3,BROOKLYN,NY,11206,347-435-3761,Brooklyn,3.0,303.0,36.0,3322077.0,3017670007.0,BK75,261.0,,-73.94888329701573,40.69379556195047,"(40.69379556195047, -73.94888329701573)",2016,8
143,2065465-1-DCA,Business,12/31/2023,Active,01/29/2018,Tobacco Retail Dealer,JUDE NY INC,,2391,FREDERICK DOUGLASS BLVD,,NEW YORK,NY,10027,2123162391,Manhattan,1.0,110.0,9.0,1059398.0,1019550010.0,MN03,215.0,,-73.94960869781177,40.812322267246245,"(40.812322267246245, -73.94960869781177)",2018,6
144,2044999-1-DCA,Business,12/31/2023,Active,10/25/2016,Tobacco Retail Dealer,Y & R GROCERY AND DELI CORP,,5016,CHURCH AVE,,BROOKLYN,NY,11203,917-345-4971,Brooklyn,3.0,317.0,45.0,3102891.0,3046980113.0,BK96,862.0,,-73.93011782683452,40.65177963892008,"(40.65177963892008, -73.93011782683452)",2016,8
145,1417515-DCA,Business,12/31/2023,Active,01/23/2012,Tobacco Retail Dealer,THE STOP & SHOP SUPERMARKET COMPANY LLC,STOP & SHOP #2512,1441,RICHMOND AVE,,STATEN ISLAND,NY,10314,718-835-7900,Staten Island,5.0,502.0,50.0,5151774.0,5015440120.0,SI05,29104.0,,-74.1585425613329,40.61323705086108,"(40.61323705086108, -74.1585425613329)",2012,12
146,1089821-DCA,Business,12/31/2023,Active,08/06/2001,Tobacco Retail Dealer,"LA CABANA, INC.",,3318,30TH AVE,,ASTORIA,NY,11103,718-267-7113,Queens,4.0,401.0,22.0,4009054.0,4006250148.0,QN70,63.0,,-73.91956495337712,40.76604000723217,"(40.76604000723217, -73.91956495337712)",2001,23
147,1194881-DCA,Business,12/31/2023,Active,04/28/2005,Tobacco Retail Dealer,MIDLANTIC CONVENIENCE INC.,,40,W 39TH ST,,NEW YORK,NY,10018,212-704-2101,Manhattan,1.0,105.0,4.0,1016013.0,1008400070.0,MN17,84.0,,-73.98365359166165,40.75215107270256,"(40.75215107270256, -73.98365359166165)",2005,19
148,2075859-1-DCA,Business,12/31/2023,Active,07/18/2018,Tobacco Retail Dealer,BHAKTI 14 INC,,1442,COLLEGE POINT BLVD,,COLLEGE POINT,NY,11356,718-661-1959,Queens,4.0,407.0,19.0,4098220.0,4040770043.0,QN23,929.0,,-73.84579387252576,40.78478832452216,"(40.784788324522154, -73.84579387252576)",2018,6
149,2005697-1311-DCA,Business,12/31/2023,Active,04/04/2014,Tobacco Retail Dealer,SHRIJIKRUPA CORP,MULBERRY ICONIC MAGAZINES,72,KENMARE ST,,NEW YORK,NY,10012,9736528488,Manhattan,1.0,102.0,1.0,1007178.0,1004800004.0,MN24,41.0,,-73.99620842246371,40.72103765182116,"(40.72103765182116, -73.99620842246371)",2014,10
150,2095676-1-DCA,Business,12/31/2023,Active,04/20/2020,Tobacco Retail Dealer,RONG CHENG INC,,5822,8TH AVE,,BROOKLYN,NY,11220,9172096599,Brooklyn,3.0,307.0,38.0,3016216.0,3008580046.0,,,,-74.00856437495071,40.63646818289232,"(40.636468182892315, -74.00856437495071)",2020,4
151,2065867-1-DCA,Business,12/31/2023,Active,02/08/2018,Tobacco Retail Dealer,AHM M. ISLAM,,S/W/C,6 AVENUE,WEST   31 STREET,NEW YORK,NY,10001,646-525-2042,Manhattan,1.0,105.0,3.0,,,,,,-73.98916564752423,40.74789461936874,"(40.74789461936874, -73.98916564752423)",2018,6
152,1294385-DCA,Business,12/31/2023,Active,08/01/2008,Tobacco Retail Dealer,"PATEL, HARSHADKUMAR P",H P NEWS STAND,265,W 14TH ST,,NEW YORK,NY,10011,862-571-9010,Manhattan,1.0,104.0,3.0,1013711.0,1007640001.0,MN13,81.0,,-74.0014001284846,40.73928758384142,"(40.73928758384142, -74.0014001284846)",2008,16
153,1447567-DCA,Business,12/31/2023,Active,10/09/2012,Tobacco Retail Dealer,"EZ GROCERY STORE, INC.",,9,WALKER ST,,STATEN ISLAND,NY,10302,347-636-9236,Staten Island,5.0,501.0,49.0,5158036.0,5011310014.0,SI28,213.0,,-74.14100097267048,40.62983023405393,"(40.62983023405393, -74.14100097267048)",2012,12
154,2066408-1-DCA,Business,12/31/2023,Active,02/21/2018,Tobacco Retail Dealer,MD SALIM,,S/W/C,AMSTERDAM AVENUE,WEST   65 STREET,NEW YORK,NY,10023,718-790-9965,Manhattan,1.0,107.0,6.0,,,,,,-73.98487935982509,40.77415584036397,"(40.774155840363974, -73.98487935982509)",2018,6
155,2072526-1-DCA,Business,12/31/2023,Active,06/04/2018,Tobacco Retail Dealer,DITMARS SMOKE SHOP INC,,4004,DITMARS BLVD,,ASTORIA,NY,11105,7184505464,Queens,4.0,401.0,22.0,4015377.0,4007950032.0,QN72,119.0,,-73.90593843804949,40.77275430471109,"(40.77275430471109, -73.90593843804949)",2018,6
156,1359661-DCA,Business,12/31/2023,Active,06/21/2010,Tobacco Retail Dealer,SUPER EXPRESS DELI & GROCERY CORP. I,,1205,BEDFORD AVE,,BROOKLYN,NY,11216,718-399-2828,Brooklyn,3.0,303.0,36.0,3322555.0,3018320097.0,BK75,245.0,,-73.9536730453112,40.68222838047677,"(40.68222838047677, -73.9536730453112)",2010,14
157,2032909-1-DCA,Business,12/31/2023,Active,02/01/2016,Tobacco Retail Dealer,BAY PKWY GROCERY CANDY CORP,,8511,BAY PKWY,,BROOKLYN,NY,11214,718-234-5545,Brooklyn,3.0,311.0,47.0,3165913.0,3063480006.0,BK28,296.0,,-73.99332701346299,40.60239995037991,"(40.602399950379905, -73.99332701346299)",2016,8
158,2032494-1-DCA,Business,12/31/2023,Active,01/19/2016,Tobacco Retail Dealer,STEVEN DELI & GROCERY CORP,,325,CYPRESS AVE,,BRONX,NY,10454,718-993-6202,Bronx,2.0,201.0,8.0,2003654.0,2025540001.0,BX39,33.0,,-73.91322527935299,40.80795572650117,"(40.80795572650117, -73.91322527935299)",2016,8
159,2045029-1-DCA,Business,12/31/2023,Active,10/25/2016,Tobacco Retail Dealer,1550 WEST SERVICE ROAD CORP,,2151,ARTHUR KILL RD,AKA 1550 WEST SERVICE ROAD,STATEN ISLAND,NY,10309,718-317-2912,Staten Island,5.0,503.0,51.0,5164493.0,5061690200.0,SI11,226.0,,-74.20906226639704,40.5572801922661,"(40.5572801922661, -74.20906226639704)",2016,8
160,1366801-DCA,Business,12/31/2023,Active,10/01/2010,Tobacco Retail Dealer,"HUDSON GROUP (HG) RETAIL, LLC",,,PENN STATION,,NEW YORK,NY,10001,2125631030,Manhattan,1.0,105.0,,1083026.0,1007810002.0,MN17,101.0,,-73.99212120686624,40.749994591761,"(40.749994591760995, -73.99212120686624)",2010,14
161,2041242-1-DCA,Business,12/31/2023,Active,07/27/2016,Tobacco Retail Dealer,198 BAINBRIDGE DELI & GROCERY CORP,,2839,BAINBRIDGE AVE,,BRONX,NY,10458,917-742-2349,Bronx,2.0,207.0,15.0,2016883.0,2032950049.0,BX05,40501.0,,-73.88843737874105,40.86846078855624,"(40.86846078855624, -73.88843737874105)",2016,8
162,1272737-DCA,Business,12/31/2023,Active,11/15/2007,Tobacco Retail Dealer,"DIAMOND NEWS, INC.",,631,2ND AVE,,NEW YORK,NY,10016,212-684-1407,Manhattan,1.0,106.0,2.0,1020157.0,1009150031.0,MN20,78.0,,-73.97566523510437,40.74509016937722,"(40.74509016937722, -73.97566523510437)",2007,17
163,1308126-DCA,Business,12/31/2024,Active,01/26/2009,Tobacco Retail Dealer,BOLLA OPERATING CORP.,KINGS ATLANTIC MOBIL,1143,ATLANTIC AVE,,BROOKLYN,NY,11216,516-240865,Brooklyn,3.0,303.0,36.0,3348528.0,3020220001.0,BK61,247.0,,-73.95315268263167,40.67876426572796,"(40.67876426572796, -73.95315268263167)",2009,15
164,2096186-1-DCA,Business,12/31/2023,Active,08/13/2020,Tobacco Retail Dealer,TRISHA ENTERPRISE INC,CHANNEL MARKET,925,CROSS BAY BLVD,,BROAD CHANNEL,NY,11693,7189457402,Queens,4.0,414.0,32.0,4315081.0,4153140017.0,,,,-73.8195667725923,40.60624121420043,"(40.60624121420043, -73.8195667725923)",2020,4
165,2016545-1-DCA,Business,12/31/2023,Active,12/16/2014,Tobacco Retail Dealer,"AJ'S EATERY, CORP.",Cafe De Novo,94 1/2,GREENWICH ST,,NEW YORK,NY,10006,2122331573,Manhattan,1.0,101.0,1.0,1001057.0,1000530040.0,MN25,13.0,,-74.01355108351943,40.70808438896342,"(40.70808438896342, -74.01355108351943)",2014,10
166,2046736-1-DCA,Business,12/31/2023,Active,12/22/2016,Tobacco Retail Dealer,AMOR SUPERMARKET CORP.,,35,W 183RD ST,,BRONX,NY,10453,347-963-9828,Bronx,2.0,207.0,14.0,2014231.0,2031970016.0,BX30,253.0,,-73.90529248817133,40.85885019350029,"(40.85885019350029, -73.90529248817133)",2016,8
167,1064293-DCA,Business,12/31/2023,Active,10/17/2000,Tobacco Retail Dealer,"PATEL, UMESH J",,N/W/C,BROADWAY,WEST  75TH STREET,NEW YORK,NY,10023,718-442-3173,Manhattan,1.0,107.0,6.0,,,,,,-73.98131028936288,40.78102539234052,"(40.78102539234052, -73.98131028936288)",2000,24
168,2095393-1-DCA,Business,12/31/2023,Active,03/16/2020,Tobacco Retail Dealer,LANCANG INC,MCM DELI,17902,UNION TPKE,,FRESH MEADOWS,NY,11366,3473483541,Queens,4.0,408.0,24.0,4155489.0,4072290007.0,,,,-73.7889271517786,40.72665216011864,"(40.72665216011864, -73.7889271517786)",2020,4
169,1416903-DCA,Business,12/31/2023,Active,01/12/2012,Tobacco Retail Dealer,"PLATHO DELI GROCERY, INC.",,5380,65TH PL,,MASPETH,NY,11378,347-432-2114,Queens,4.0,405.0,30.0,4054792.0,4023740199.0,QN30,515.0,,-73.90024514851252,40.72916839155509,"(40.72916839155509, -73.90024514851252)",2012,12
170,2009385-1983-DCA,Business,12/31/2023,Active,06/09/2014,Tobacco Retail Dealer,"ARN DELI SUPERMARKET, INC.",,8701,111TH ST,,RICHMOND HILL,NY,11418,718-847-0725,Queens,4.0,409.0,28.0,4194831.0,4093010001.0,QN54,124.0,,-73.83697880276658,40.69649935575827,"(40.69649935575827, -73.83697880276658)",2014,10
171,1367755-DCA,Business,12/31/2023,Active,08/20/2010,Tobacco Retail Dealer,"HUDSON GROUP (HG) RETAIL, LLC",,655,W 34TH ST,,NEW YORK,NY,10001,2125631030,Manhattan,1.0,104.0,3.0,1067973.0,1006800001.0,MN13,99.0,,-74.00354453734707,40.75645319497895,"(40.75645319497895, -74.00354453734707)",2010,14
172,2097733-2-DCA,Business,12/31/2024,Active,02/16/2021,Tobacco Retail Dealer,MONROE F & H GOURMET DELI CORP,,57,MARKET ST,,NEW YORK,NY,10002,212-964-6286,Manhattan,1.0,103.0,1.0,1077591.0,1002530001.0,,,,-73.99425754331311,40.71143639880464,"(40.711436398804636, -73.99425754331311)",2021,3
173,2035113-1-DCA,Business,12/31/2023,Active,03/28/2016,Tobacco Retail Dealer,MAHARAJ MATAJI CORPORATION,MASPETH MIXIT MART,6928,GRAND AVE,,MASPETH,NY,11378,718-397-5633,Queens,4.0,405.0,30.0,4062596.0,4027920001.0,QN30,49302.0,,-73.8944369112849,40.7264513921778,"(40.7264513921778, -73.8944369112849)",2016,8
174,1084063-DCA,Business,12/31/2023,Active,06/06/2001,Tobacco Retail Dealer,"PATEL, SURYA",SURYA PATEL NEWS STAND,S/W/C,WATER STREET,FULTON STREET,NEW YORK,NY,10038,201-656-1868,Manhattan,1.0,101.0,1.0,1001163.0,1000750001.0,,,,-74.00427050785834,40.707316573568,"(40.707316573568, -74.00427050785834)",2001,23
175,2095850-1-DCA,Business,12/31/2023,Active,06/22/2020,Tobacco Retail Dealer,GOLO FOOD MARKET CORP,,4101,NATIONAL ST,,CORONA,NY,11368,7185052525,Queens,4.0,404.0,21.0,4048563.0,4019760001.0,,,,-73.86316896333732,40.7485110203849,"(40.7485110203849, -73.86316896333732)",2020,4
176,2111944-2-DCA,Business,12/31/2024,Active,03/28/2023,Tobacco Retail Dealer,"BELLA DELI FOOD, CORP",,951,PUTNAM AVE,,BROOKLYN,NY,11221,347-6631113,Brooklyn,3.0,303.0,41.0,3039677.0,3014830001.0,,,,-73.9228800466757,40.68716068776511,"(40.68716068776511, -73.9228800466757)",2023,1
177,1378349-DCA,Business,12/31/2023,Active,12/07/2010,Tobacco Retail Dealer,"DANISH ORGANIC, INC.",,3412,30TH AVE,,ASTORIA,NY,11103,718-956-1601,Queens,4.0,401.0,22.0,4009087.0,4006260045.0,QN70,63.0,,-73.91880368283188,40.76567442248581,"(40.76567442248581, -73.91880368283188)",2010,14
178,2042164-1-DCA,Business,12/31/2023,Active,08/09/2016,Tobacco Retail Dealer,INDULGE GRILL GOURMET INC,,5304,4TH AVE,,BROOKLYN,NY,11220,917-371-6090,Brooklyn,3.0,307.0,38.0,3014202.0,3008140039.0,BK32,76.0,,-74.01443547206301,40.64469646359387,"(40.64469646359387, -74.01443547206301)",2016,8
179,2097981-1-DCA,Business,12/31/2023,Active,03/09/2021,Tobacco Retail Dealer,JUNCTION SMOKE INC,,4022,JUNCTION BLVD,,CORONA,NY,11368,7186391568,Queens,4.0,404.0,21.0,4039838.0,4015960022.0,,,,-73.86909488511328,40.7486084844798,"(40.748608484479796, -73.86909488511328)",2021,3
180,2065554-1-DCA,Business,12/31/2023,Active,01/31/2018,Tobacco Retail Dealer,522 9TH AVENUE FOOD CORP,LINCOLN GOURMET DELI,522,9TH AVE,,NEW YORK,NY,10018,212-216-9614,Manhattan,1.0,104.0,3.0,1013655.0,1007620070.0,MN15,115.0,,-73.99407679850974,40.75643113926877,"(40.75643113926877, -73.99407679850974)",2018,6
181,2059012-1-DCA,Business,12/31/2023,Active,10/05/2017,Tobacco Retail Dealer,COLLEGE PEN & STATIONERY INC.,,144,BLEECKER ST,,NEW YORK,NY,10012,212-460-8700,Manhattan,1.0,102.0,1.0,1008267.0,1005250046.0,MN23,65.0,,-73.99915212570546,40.7281548671045,"(40.7281548671045, -73.99915212570546)",2017,7
182,1444465-DCA,Business,12/31/2023,Active,09/11/2012,Tobacco Retail Dealer,"PARIKH, SHAILESH",,S/E/C,6 AVENUE,WEST   47 STREET,NEW YORK,NY,10036,616-436-4333,Manhattan,1.0,105.0,4.0,,,,,,-73.98179321024965,40.7580218047754,"(40.7580218047754, -73.98179321024965)",2012,12
183,2043864-1-DCA,Business,12/31/2023,Active,09/19/2016,Tobacco Retail Dealer,ROCKAWAY BEACH GOURMET DELI INC.,,9209,ROCKAWAY BEACH BLVD,,ROCKAWAY BEACH,NY,11693,718-474-1400,Queens,4.0,414.0,32.0,4303630.0,4161350028.0,QN12,94203.0,,-73.81566734904678,40.58635440793157,"(40.58635440793157, -73.81566734904678)",2016,8
184,1067791-DCA,Business,12/31/2023,Active,11/28/2000,Tobacco Retail Dealer,"DISCOUNT DEPOT, INC.",,1627,2ND AVE,,NEW YORK,NY,10028,2125706400,Manhattan,1.0,108.0,5.0,1048740.0,1015300025.0,MN32,14601.0,,-73.9524987522261,40.77685884238239,"(40.77685884238239, -73.9524987522261)",2000,24
185,1370359-DCA,Business,12/31/2023,Active,09/10/2010,Tobacco Retail Dealer,NAGI ABDO ALDAFARI,137 NEWSSTAND,137,GREENPOINT AVE,,BROOKLYN,NY,11222,718-383-8789,Brooklyn,3.0,301.0,33.0,3064720.0,3025580051.0,BK76,565.0,,-73.95481957170152,40.73015242310533,"(40.730152423105324, -73.95481957170152)",2010,14
186,1046887-DCA,Business,12/31/2023,Active,10/18/2000,Tobacco Retail Dealer,"SILVER STAR ENTERPRISES, INC.",FINE FOOD DELI & CONVENIENCE STORE,411,2ND AVE,,NEW YORK,NY,10010,212-683-4699,Manhattan,1.0,106.0,2.0,1078776.0,1009040029.0,MN21,64.0,,-73.98065110332469,40.73824845065671,"(40.73824845065671, -73.98065110332469)",2000,24
187,2072665-1-DCA,Business,12/31/2023,Active,06/05/2018,Tobacco Retail Dealer,HARVEST GROCERY INC,,2220,AVENUE U,,BROOKLYN,NY,11229,718-743-6940,Brooklyn,3.0,315.0,48.0,3199889.0,3073550008.0,BK44,576.0,,-73.94917505935986,40.59961940510631,"(40.59961940510631, -73.94917505935986)",2018,6
188,2066802-1-DCA,Business,12/31/2023,Active,02/23/2018,Tobacco Retail Dealer,AMBOY TRADING CORP,,7254,AMBOY RD,,STATEN ISLAND,NY,10307,347-336-7305,Staten Island,5.0,503.0,51.0,5087645.0,5078540031.0,SI11,24401.0,,-74.23952196826366,40.51205189355496,"(40.51205189355496, -74.23952196826366)",2018,6
189,1322505-DCA,Business,12/31/2023,Active,06/16/2009,Tobacco Retail Dealer,NEWKIRK GROCERY INC,,13,NEWKIRK PLZ,,BROOKLYN,NY,11226,718-434-1207,Brooklyn,3.0,314.0,40.0,3121185.0,3052360021.0,BK42,520.0,,-73.96275638279104,40.63505988393151,"(40.63505988393151, -73.96275638279104)",2009,15
190,2097383-1-DCA,Business,12/31/2023,Active,01/04/2021,Tobacco Retail Dealer,LOS LIMONES DELI GROCERY INC,,1330,HALSEY ST,,BROOKLYN,NY,11237,7183836143,Brooklyn,3.0,304.0,37.0,3078928.0,3034130039.0,,,,-73.90677032423463,40.694318105992615,"(40.694318105992615, -73.90677032423463)",2021,3
191,2065972-1-DCA,Business,12/31/2023,Active,02/12/2018,Tobacco Retail Dealer,BOLLA OPERATING CORP.,KINGS HILLSIDE C-STORE,18705,HILLSIDE AVE,,JAMAICA,NY,11432,516-240865,Queens,4.0,408.0,24.0,4213411.0,4099600019.0,QN06,472.0,,-73.77546314128072,40.71466773795424,"(40.71466773795424, -73.77546314128072)",2018,6
192,2066126-1-DCA,Business,12/31/2023,Active,02/15/2018,Tobacco Retail Dealer,NEW SMOKE AND SNACKS INC,,99,KINGSLAND AVE,,BROOKLYN,NY,11222,347-294-4037,Brooklyn,3.0,301.0,34.0,3378501.0,3028337501.0,BK90,477.0,,-73.9406923386746,40.719768083867066,"(40.719768083867066, -73.9406923386746)",2018,6
193,2033758-1-DCA,Business,12/31/2023,Active,02/26/2016,Tobacco Retail Dealer,CAIRO MINIMARKET CORP,DELI 2010,6052,MYRTLE AVE,,RIDGEWOOD,NY,11385,718-417-4710,Queens,4.0,405.0,34.0,4086746.0,4035890038.0,,,,-73.89624134476882,40.70064676701164,"(40.70064676701164, -73.89624134476882)",2016,8
194,2035694-1-DCA,Business,12/31/2023,Active,04/07/2016,Tobacco Retail Dealer,STEPHEN DELI 1 CORP,,6125,WOODHAVEN BLVD,,REGO PARK,NY,11374,929-333-0497,Queens,4.0,406.0,29.0,4072934.0,4031050001.0,QN18,687.0,,-73.87110473034824,40.72830505271924,"(40.72830505271924, -73.87110473034824)",2016,8
195,2045223-1-DCA,Business,12/31/2023,Active,11/02/2016,Tobacco Retail Dealer,KARMA PRITO INC,SHOP SMART FOOD MART,590,MIDLAND AVE,,STATEN ISLAND,NY,10306,917-716-8991,Staten Island,5.0,502.0,50.0,5054764.0,5038150018.0,SI45,11202.0,,-74.09254061417417,40.5719971395947,"(40.5719971395947, -74.09254061417417)",2016,8
196,1363335-DCA,Business,12/31/2023,Active,07/26/2010,Tobacco Retail Dealer,ADEN FOOD MARKET CORP.,,351,BEDFORD AVE,,BROOKLYN,NY,11211,718-388-4868,Brooklyn,3.0,301.0,34.0,3063441.0,3024440009.0,BK73,549.0,,-73.96299485879477,40.71179839243116,"(40.71179839243116, -73.96299485879477)",2010,14
197,2079225-1-DCA,Business,12/31/2023,Active,10/18/2018,Tobacco Retail Dealer,"DAVIDOFF OF GENEVA (DOWNTOWN NYC), LLC",,225,LIBERTY ST,,NEW YORK,NY,10281,727-828-5425,Manhattan,1.0,101.0,1.0,1000058.0,1000160125.0,MN25,31703.0,,-74.01567274628705,40.71153703134516,"(40.71153703134516, -74.01567274628705)",2018,6
198,1224965-DCA,Business,12/31/2023,Active,04/27/2006,Tobacco Retail Dealer,SHAIZAL CORP.,,6,CORTLANDT ST,,NEW YORK,NY,10007,212-962-4192,Manhattan,1.0,101.0,1.0,1001079.0,1000630021.0,MN25,13.0,,-74.0103159942943,40.70996214232855,"(40.70996214232855, -74.0103159942943)",2006,18
199,2079228-1-DCA,Business,12/31/2023,Active,10/18/2018,Tobacco Retail Dealer,DAVIDOFF OF GENEVA (6TH AVE.) LLC,,1390,AVENUE OF THE AMERICAS,,NEW YORK,NY,10019,727-828-4525,Manhattan,1.0,105.0,4.0,1035037.0,1012720001.0,MN17,11201.0,,-73.97741274351853,40.76400731448593,"(40.76400731448593, -73.97741274351853)",2018,6
200,1043401-DCA,Business,12/31/2023,Active,09/18/2000,Tobacco Retail Dealer,GLAMOUR ENTERPRICES INC.,39 GOURMET DELI & CONVENIENCE STORE,335,LEXINGTON AVE,,NEW YORK,NY,10016,212-661-9141,Manhattan,1.0,106.0,4.0,1019477.0,1008950028.0,MN20,80.0,,-73.97735987286809,40.74962758473869,"(40.74962758473869, -73.97735987286809)",2000,24
201,2011447-1-DCA,Business,12/31/2023,Active,07/31/2014,Tobacco Retail Dealer,RIDGE ORGANIC INC,,8204,3RD AVE,,BROOKLYN,NY,11209,347-531-3741,Brooklyn,3.0,310.0,43.0,3152040.0,3060060037.0,BK31,62.0,,-74.0299329007695,40.62625673668451,"(40.62625673668451, -74.0299329007695)",2014,10
202,1248247-DCA,Business,12/31/2023,Active,02/13/2007,Tobacco Retail Dealer,CANDY SHOP 93 INC.,,9305,3RD AVE,,BROOKLYN,NY,11209,347-553-1736,Brooklyn,3.0,310.0,43.0,3155243.0,3061070011.0,BK31,58.0,,-74.03306322209475,40.61853478103204,"(40.61853478103204, -74.03306322209475)",2007,17
203,1053261-DCA,Business,12/31/2023,Active,07/01/2004,Tobacco Retail Dealer,THE STOP & SHOP SUPERMARKET COMPANY LLC,STOP & SHOP #506,1009,FLATBUSH AVE,,BROOKLYN,NY,11226,718-835-7900,Brooklyn,3.0,314.0,40.0,3117671.0,3051260001.0,BK95,794.0,,-73.9581012720379,40.64670989846653,"(40.64670989846653, -73.9581012720379)",2004,20
204,2039213-1-DCA,Business,12/31/2023,Active,06/20/2016,Tobacco Retail Dealer,37-63 GROCERY FOOD CORP.,,3763,88TH ST,,JACKSON HEIGHTS,NY,11372,3477384177,Queens,4.0,403.0,21.0,4307343.0,4014760046.0,QN28,277.0,,-73.8784884742598,40.74908264019583,"(40.74908264019583, -73.8784884742598)",2016,8
205,1417517-DCA,Business,12/31/2023,Active,01/23/2012,Tobacco Retail Dealer,THE STOP & SHOP SUPERMARKET COMPANY LLC,Stop & Shop Store # 2513,4343,AMBOY RD,,STATEN ISLAND,NY,10312,7188357900,Staten Island,5.0,503.0,51.0,5073190.0,5054970007.0,SI54,14604.0,,-74.16056552774663,40.545341436325366,"(40.545341436325366, -74.16056552774663)",2012,12
206,1430053-DCA,Business,12/31/2023,Active,05/17/2012,Tobacco Retail Dealer,286 WATCHOGUE RD. CORP.,,286,WATCHOGUE RD,,STATEN ISLAND,NY,10314,718-698-3432,Staten Island,5.0,501.0,50.0,5012589.0,5004670006.0,SI07,18901.0,,-74.13886859083526,40.61616924274937,"(40.61616924274937, -74.13886859083526)",2012,12
207,1115629-DCA,Business,12/31/2023,Active,07/25/2002,Tobacco Retail Dealer,MURAD ALI & SYED KHALED MIAH,M ALI GROCERY,127,LUDLOW ST,,NEW YORK,NY,10002,2123587939,Manhattan,1.0,103.0,1.0,1005312.0,1004100017.0,MN27,18.0,,-73.98851003844298,40.7197965098613,"(40.7197965098613, -73.98851003844298)",2002,22
208,2065789-1-DCA,Business,12/31/2023,Active,02/07/2018,Tobacco Retail Dealer,HELL'S KITCHEN DELI FOOD CORP.,,535,9TH AVE,,NEW YORK,NY,10018,347-697-6401,Manhattan,1.0,104.0,3.0,1012999.0,1007370037.0,MN15,115.0,,-73.99371940863386,40.75694713240424,"(40.75694713240424, -73.99371940863386)",2018,6
209,2096858-1-DCA,Business,12/31/2023,Active,11/05/2020,Tobacco Retail Dealer,BOLLA OPERATING CORP.,BOLLA 177-68 SOUTH CONDUIT C-STORE,17790,S CONDUIT AVE,,JAMAICA,NY,11434,516-240865,Queens,4.0,413.0,31.0,4285480.0,4133120001.0,,,,-73.7676185496334,40.66673107131486,"(40.66673107131486, -73.7676185496334)",2020,4
210,1045177-DCA,Business,12/31/2023,Active,10/25/2000,Tobacco Retail Dealer,"VESEY ST. EDIBLES, INC.",,20,VESEY ST,,NEW YORK,NY,10007,212-964-4455,Manhattan,1.0,101.0,1.0,1001235.0,1000880005.0,MN24,21.0,,-74.00956240289848,40.711842369677385,"(40.711842369677385, -74.00956240289848)",2000,24
211,2014123-1-DCA,Business,12/31/2023,Active,10/01/2014,Tobacco Retail Dealer,"HG-KCGI-TEI JFK T8, JV",Hudson/Euro Cafe,,JFK Terminal 8,,JAMAICA,NY,11430,,Queens,4.0,483.0,28.0,4542290.0,4142600001.0,,,,,,,2014,10
212,2017049-1-DCA,Business,12/31/2023,Active,01/05/2015,Tobacco Retail Dealer,"GAYATRI STATIONERY & LEGAL FORM, INC.",,8787,SUTPHIN BLVD,,JAMAICA,NY,11435,718-291-8787,Queens,4.0,412.0,24.0,4207072.0,4096920045.0,QN61,238.0,,-73.80935914103725,40.70506178163505,"(40.70506178163505, -73.80935914103725)",2015,9
213,2097578-1-DCA,Business,12/31/2023,Active,01/25/2021,Tobacco Retail Dealer,161 DELI AND GRILL CORP,,9046,161ST ST,,JAMAICA,NY,11432,7182620004,Queens,4.0,412.0,24.0,4208855.0,4097570047.0,,,,-73.79927073378151,40.705184614261455,"(40.705184614261455, -73.79927073378151)",2021,3
214,1353861-DCA,Business,12/31/2023,Active,05/12/2010,Tobacco Retail Dealer,"N & K SUPERMART, INC.",,8319,NORTHERN BLVD,,JACKSON HTS,NY,11372,8625719010,Queens,4.0,403.0,25.0,4034556.0,4014130035.0,QN28,327.0,,-73.88417938043318,40.75569236961739,"(40.75569236961739, -73.88417938043318)",2010,14
215,1363441-DCA,Business,12/31/2023,Active,07/21/2010,Tobacco Retail Dealer,CROES AVENUE FAMOUS DELI CORP,NY FAMOUS DELI,1683,E 172ND ST,,BRONX,NY,10472,718-991-3039,Bronx,2.0,209.0,18.0,2027626.0,2038710007.0,BX08,64.0,,-73.87201645941444,40.83219714541317,"(40.83219714541317, -73.87201645941444)",2010,14
216,2096615-1-DCA,Business,12/31/2023,Active,10/09/2020,Tobacco Retail Dealer,W STONE MART INC,FOOD MART,1504,149TH ST,,WHITESTONE,NY,11357,347-592-9385,Queens,4.0,407.0,19.0,4105231.0,4046460014.0,,,,-73.81621333756556,40.78697093074307,"(40.78697093074307, -73.81621333756556)",2020,4
217,1249385-DCA,Business,12/31/2023,Active,03/05/2007,Tobacco Retail Dealer,JASTIC MART INC.,,11811,ATLANTIC AVE,,RICHMOND HILL,NY,11418,718-441-2379,Queens,4.0,409.0,29.0,4462104.0,4093500032.0,QN54,122.0,,-73.82867666883249,40.69388799644852,"(40.69388799644852, -73.82867666883249)",2007,17
218,2044507-1-DCA,Business,12/31/2023,Active,10/06/2016,Tobacco Retail Dealer,CHARLIE'S NEWSSTAND II INC,,200,MADISON AVE,,NEW YORK,NY,10016,862-571-9010,Manhattan,1.0,105.0,4.0,1017122.0,1008650014.0,MN20,82.0,,-73.98241295747745,40.74852782312925,"(40.748527823129244, -73.98241295747745)",2016,8
219,2075254-1-DCA,Business,12/31/2023,Active,07/09/2018,Tobacco Retail Dealer,VEDA FOODS INC.,SHEEN BROTHERS,155,AVENUE B,,NEW YORK,NY,10009,212-674-8835,Manhattan,1.0,103.0,2.0,1004765.0,1003920007.0,MN28,28.0,,-73.97996893661556,40.7267642811597,"(40.7267642811597, -73.97996893661556)",2018,6
220,2044325-1-DCA,Business,12/31/2023,Active,09/30/2016,Tobacco Retail Dealer,NELLY MINI MARKET CORP,,1055,UNIVERSITY AVE,,BRONX,NY,10452,718-588-1515,Bronx,2.0,204.0,16.0,2003497.0,2025270061.0,BX26,193.0,,-73.93026902903412,40.83467614925316,"(40.834676149253156, -73.93026902903412)",2016,8
221,1292895-DCA,Business,12/31/2023,Active,08/18/2008,Tobacco Retail Dealer,"JASANI, RAHIM",,N/W/C,WEST   49 STREET,6 AVENUE,NEW YORK,NY,10020,9173251525,Manhattan,1.0,105.0,4.0,,,,,,-73.98088684394885,40.75927051662176,"(40.75927051662176, -73.98088684394885)",2008,16
222,1254155-DCA,Business,12/31/2023,Active,05/03/2007,Tobacco Retail Dealer,THE STOP & SHOP SUPERMARKET COMPANY LLC,STOP & SHOP #503,5716,BROADWAY,,BRONX,NY,10463,718-835-7900,Bronx,2.0,208.0,11.0,2016173.0,2032690001.0,BX29,283.0,,-73.90230072756312,40.88242738036165,"(40.88242738036165, -73.90230072756312)",2007,17
223,2065724-1-DCA,Business,12/31/2023,Active,02/06/2018,Tobacco Retail Dealer,AAA ROCKAWAY GAS INC,SUNOCO,12824,ROCKAWAY BLVD,,SOUTH OZONE PARK,NY,11420,718-848-4018,Queens,4.0,410.0,28.0,,,QN55,818.0,,-73.81300942786771,40.67539125184009,"(40.67539125184009, -73.81300942786771)",2018,6
224,1285249-DCA,Business,12/31/2023,Active,07/03/2008,Tobacco Retail Dealer,"PARVIN,JASMIN",,N/E/C,BROADWAY,WEST   41 STREET,NEW YORK,NY,10036,917-291-3461,Manhattan,1.0,105.0,3.0,,,,,,-73.98663788428713,40.75503344115212,"(40.755033441152115, -73.98663788428713)",2008,16
225,1352787-DCA,Business,12/31/2023,Active,05/04/2010,Tobacco Retail Dealer,"NEW DELI FOOD, INC.",,2168,BATH AVE,,BROOKLYN,NY,11214,718-266-3550,Brooklyn,3.0,311.0,47.0,3340679.0,3064470032.0,BK27,292.0,,-73.99777458941723,40.59884012057813,"(40.59884012057813, -73.99777458941723)",2010,14
226,1366789-DCA,Business,12/31/2023,Active,08/17/2010,Tobacco Retail Dealer,"KLEYNBURG, ROMAN",7-ELEVEN STORE 34362A,1740,HYLAN BLVD,,STATEN ISLAND,NY,10305,7189792052,Staten Island,5.0,502.0,50.0,5153740.0,5033800102.0,SI36,70.0,,-74.0921537923047,40.586440610756,"(40.586440610756, -74.0921537923047)",2010,14
227,2033033-1-DCA,Business,12/31/2023,Active,02/05/2016,Tobacco Retail Dealer,SAN FRANCISCO DELI GROCERY CORP.,,22201,LINDEN BLVD,,CAMBRIA HEIGHTS,NY,11411,7185251111,Queens,4.0,413.0,27.0,4244412.0,4113230006.0,QN33,596.0,,-73.73826466789428,40.69456328301454,"(40.69456328301454, -73.73826466789428)",2016,8
228,2008765-1853-DCA,Business,12/31/2023,Active,05/28/2014,Tobacco Retail Dealer,"ALI BABA ORGANIC, INC.",,1,MOTT ST,,NEW YORK,NY,10013,212-233-5797,Manhattan,1.0,103.0,1.0,1081983.0,1001640054.0,MN27,29.0,,-73.99869058763464,40.713761347851296,"(40.713761347851296, -73.99869058763464)",2014,10
229,1447615-DCA,Business,12/31/2023,Active,10/12/2012,Tobacco Retail Dealer,M & D KIM CORP,VERDI FRESH,2101,31ST ST,,ASTORIA,NY,11105,646-290-0280,Queens,4.0,401.0,22.0,4016928.0,4008310029.0,QN72,113.0,,-73.90879112290578,40.77768065985755,"(40.77768065985755, -73.90879112290578)",2012,12
230,2066469-1-DCA,Business,12/31/2023,Active,02/22/2018,Tobacco Retail Dealer,AHM M. ISLAM,,N/W/C,BROADWAY,WEST   54 STREET,NEW YORK,NY,10019,646-525-2042,Manhattan,1.0,105.0,4.0,,,,,,-73.98247023188081,40.76403289770184,"(40.76403289770184, -73.98247023188081)",2018,6
231,2097840-1-DCA,Business,12/31/2023,Active,02/25/2021,Tobacco Retail Dealer,FRESH MARKET GOURMET DELI CORP,,974,MANHATTAN AVE,,BROOKLYN,NY,11222,3474466827,Brooklyn,3.0,301.0,33.0,3064313.0,3025330001.0,,,,-73.95462315398345,40.73247440882212,"(40.73247440882212, -73.95462315398345)",2021,3
232,2066672-1-DCA,Business,12/31/2023,Active,02/23/2018,Tobacco Retail Dealer,"AAA QUEENS GAS, INC",,6011,QUEENS BLVD,,WOODSIDE,NY,11377,646-639-7009,Queens,4.0,402.0,26.0,4031558.0,4013380001.0,QN63,249.0,,-73.90417102486197,40.74147920713577,"(40.74147920713577, -73.90417102486197)",2018,6
233,2095687-1-DCA,Business,12/31/2023,Active,04/21/2020,Tobacco Retail Dealer,WASIM DELI GROCERY CORP,,2122,36TH AVE,,ASTORIA,NY,11106,7189377001,Queens,4.0,401.0,26.0,4004269.0,4003480019.0,,,,-73.93651643032825,40.75974591952591,"(40.75974591952591, -73.93651643032825)",2020,4
234,1048473-DCA,Business,12/31/2023,Active,12/19/2000,Tobacco Retail Dealer,"PENINSULA OF NEW YORK, INC.",,700,5TH AVE,,NEW YORK,NY,10019,2122472200,Manhattan,1.0,105.0,4.0,1034801.0,1012700038.0,MN17,104.0,,-73.97533788234067,40.76173424210123,"(40.76173424210123, -73.97533788234067)",2000,24
235,2033336-1-DCA,Business,12/31/2023,Active,02/17/2016,Tobacco Retail Dealer,182ND ST DELI GROCERY CORP,,816,E 182ND ST,,BRONX,NY,10460,347-891-7646,Bronx,2.0,206.0,15.0,2013008.0,2031110055.0,BX17,36501.0,,-73.88348646842532,40.848490929997496,"(40.848490929997496, -73.88348646842532)",2016,8
236,2065646-1-DCA,Business,12/31/2023,Active,02/02/2018,Tobacco Retail Dealer,695 COLUMBUS AVE. STATIONERY INC.,,695,COLUMBUS AVE,,NEW YORK,NY,10025,212-932-8425,Manhattan,1.0,107.0,6.0,1079516.0,1012070001.0,MN12,177.0,,-73.96857356588721,40.79140594790791,"(40.79140594790791, -73.96857356588721)",2018,6
237,2034565-1-DCA,Business,12/31/2023,Active,03/17/2016,Tobacco Retail Dealer,SSP FOOD CORP,TABLETIME,20,E 42ND ST,,NEW YORK,NY,10017,212-682-4242,Manhattan,1.0,105.0,4.0,1035340.0,1012760065.0,MN20,82.0,,-73.98017394720561,40.75316882737324,"(40.75316882737324, -73.98017394720561)",2016,8
238,2016939-1-DCA,Business,12/31/2023,Active,12/30/2014,Tobacco Retail Dealer,LA GONDOLA DELI GROCERY INC,,167,E 205TH ST,,BRONX,NY,10458,718-933-8537,Bronx,2.0,207.0,11.0,2017393.0,2033120070.0,BX05,413.0,,-73.88542827406741,40.87529762207831,"(40.87529762207831, -73.88542827406741)",2014,10
239,2033970-1-DCA,Business,12/31/2023,Active,03/03/2016,Tobacco Retail Dealer,SAF 2 CORP,ALL IN ONE EXPRESS GROCERY,4319,QUEENS BLVD,,SUNNYSIDE,NY,11104,646-377-0468,Queens,4.0,402.0,26.0,4001937.0,4001620042.0,,,,-73.92121978567832,40.74346011798269,"(40.74346011798269, -73.92121978567832)",2016,8
240,1297973-DCA,Business,12/31/2023,Active,09/02/2008,Tobacco Retail Dealer,62ND & 1ST LLC,SUGAR EAST,1125,1ST AVE,,NEW YORK,NY,10065,,Manhattan,1.0,108.0,5.0,1072390.0,1014360502.0,MN31,110.0,,-73.96079430365263,40.76124988064507,"(40.76124988064507, -73.96079430365263)",2008,16
241,2015368-1-DCA,Business,12/31/2023,Active,11/07/2014,Tobacco Retail Dealer,PKG ENTERPRISES INC,,11817,LIBERTY AVE,,SOUTH RICHMOND HILL,NY,11419,718-843-0991,Queens,4.0,410.0,28.0,4203689.0,4095560030.0,QN55,106.0,,-73.82483144461725,40.68606783273838,"(40.68606783273838, -73.82483144461725)",2014,10
242,1268871-DCA,Business,12/31/2023,Active,09/26/2007,Tobacco Retail Dealer,EAGLE COSMETICS INC.,,971,1ST AVE,,NEW YORK,NY,10022,917-576-5067,Manhattan,1.0,106.0,4.0,1039838.0,1013460026.0,MN19,98.0,,-73.96461983721902,40.756000422835335,"(40.756000422835335, -73.96461983721902)",2007,17
243,2038685-1-DCA,Business,12/31/2023,Active,06/06/2016,Tobacco Retail Dealer,HEALTHY CHOICE GOURMET INC.,,1776,MADISON AVE,,NEW YORK,NY,10035,6469284848,Manhattan,1.0,111.0,9.0,1080650.0,1016220017.0,MN34,184.0,,-73.94453214727419,40.80043802346501,"(40.80043802346501, -73.94453214727419)",2016,8
244,1309800-DCA,Business,12/31/2024,Active,02/23/2009,Tobacco Retail Dealer,BOLLA OPERATING CORP.,KINGS ROCKAWAY & SEAVIEW MOBIL,2000,ROCKAWAY PKWY,,BROOKLYN,NY,11236,516-240865,Brooklyn,3.0,318.0,46.0,3234512.0,3082990068.0,BK50,1024.0,,-73.89025200929167,40.634288916030414,"(40.634288916030414, -73.89025200929167)",2009,15
245,2075247-1-DCA,Business,12/31/2023,Active,07/09/2018,Tobacco Retail Dealer,TROPICAL DELI & GROCERY INC,,4402,BROADWAY,,ASTORIA,NY,11103,718-545-5176,Queens,4.0,401.0,26.0,4012368.0,4007070035.0,QN70,159.0,,-73.9156806635846,40.75740500920877,"(40.75740500920877, -73.9156806635846)",2018,6
246,1241535-DCA,Business,12/31/2023,Active,10/13/2006,Tobacco Retail Dealer,BLAK SERVICE STATION INC.,,1022,ROCKAWAY AVE,,BROOKLYN,NY,11236,718-346-2111,Brooklyn,3.0,316.0,42.0,3083076.0,3036430028.0,BK82,1098.0,,-73.9068333150848,40.654400871193175,"(40.654400871193175, -73.9068333150848)",2006,18
247,2046950-1-DCA,Business,12/31/2023,Active,12/30/2016,Tobacco Retail Dealer,"FIFTH AVENUE CONVENIENCE, INC",,7520,5TH AVE,,BROOKLYN,NY,11209,718-748-1024,Brooklyn,3.0,310.0,43.0,3148787.0,3059410047.0,BK31,134.0,,-74.0227433987353,40.62925843884501,"(40.629258438845014, -74.0227433987353)",2016,8
248,1281947-DCA,Business,12/31/2023,Active,04/15/2008,Tobacco Retail Dealer,FERASS DELI CORP.,,831,AVENUE OF THE AMERICAS,,NEW YORK,NY,10001,212-868-9790,Manhattan,1.0,105.0,3.0,1015123.0,1008040042.0,MN17,95.0,,-73.99014750376273,40.74656899387834,"(40.74656899387834, -73.99014750376273)",2008,16
249,2103640-1-DCA,Business,12/31/2023,Active,01/26/2022,Tobacco Retail Dealer,WILSON GOURMET DELI CORP,,3401,BOSTON RD,,BRONX,NY,10469,3472760252,Bronx,2.0,212.0,12.0,2059977.0,2047120040.0,,,,-73.85057342521469,40.87555143744386,"(40.87555143744386, -73.85057342521469)",2022,2
250,2033351-1-DCA,Business,12/31/2023,Active,02/17/2016,Tobacco Retail Dealer,JMADRID DELI CORP,,10401,FRANCIS LEWIS BLVD,,QUEENS VILLAGE,NY,11429,718-740-1114,Queens,4.0,413.0,27.0,4233425.0,4109100001.0,QN34,512.0,,-73.75235760508448,40.7100942233749,"(40.7100942233749, -73.75235760508448)",2016,8
251,1048593-DCA,Business,12/31/2023,Active,06/12/2006,Tobacco Retail Dealer,"ROSARIO, JOSE",FOOD CENTER GROCERY,358,FRANKLIN AVE,,BROOKLYN,NY,11238,718-636-4495,Brooklyn,3.0,303.0,35.0,3056426.0,3019700036.0,BK69,229.0,,-73.95680688860267,40.68675847335578,"(40.68675847335578, -73.95680688860267)",2006,18
252,2103751-1-DCA,Business,12/31/2023,Active,02/02/2022,Tobacco Retail Dealer,PRIZE PARAGON 2 INC,7 ELEVEN STORE #32406B,16201,46TH AVE,,FLUSHING,NY,11358,9293054786,Queens,4.0,407.0,20.0,4534967.0,4054410086.0,,,,-73.80481631495475,40.75376821012182,"(40.75376821012182, -73.80481631495475)",2022,2
253,2072660-1-DCA,Business,12/31/2023,Active,06/05/2018,Tobacco Retail Dealer,APNA FOOD & OIL CORP,,6510,QUEENS BLVD,,WOODSIDE,NY,11377,516-493-9100,Queens,4.0,402.0,26.0,4437388.0,4023920023.0,QN63,245.0,,-73.9002202767003,40.74095983853656,"(40.74095983853656, -73.9002202767003)",2018,6
254,2066562-1-DCA,Business,12/31/2023,Active,02/22/2018,Tobacco Retail Dealer,BOLLA OPERATING CORP.,KINGS 7023 BAY PARKWAY C-STORE,7023,BAY PKWY,,BROOKLYN,NY,11204,516-240865,Brooklyn,3.0,311.0,44.0,3173183.0,3065740001.0,BK29,430.0,,-73.98463544415276,40.61075153017263,"(40.61075153017263, -73.98463544415276)",2018,6
255,2103668-1-DCA,Business,12/31/2023,Active,01/27/2022,Tobacco Retail Dealer,101-04 METRO INC,,10104,METROPOLITAN AVE,,FOREST HILLS,NY,11375,9178816849,Queens,4.0,406.0,29.0,4095291.0,4038960033.0,,,,-73.8517187355064,40.71059172094861,"(40.71059172094861, -73.8517187355064)",2022,2
256,2115172-2-DCA,Business,12/31/2024,Active,07/18/2023,Tobacco Retail Dealer,KIARA DELI & GROCERY FOOD CORP,,11002,GUY R BREWER BLVD,,JAMAICA,NY,11433,917-391-9043,Queens,4.0,412.0,28.0,4263644.0,4121650035.0,,,,-73.78880225776359,40.69320141020926,"(40.69320141020926, -73.78880225776359)",2023,1
257,2080146-1-DCA,Business,12/31/2023,Active,11/26/2018,Tobacco Retail Dealer,MB DELI GROCERY CORP,,141,EVERGREEN AVE,,BROOKLYN,NY,11206,718-628-6428,Brooklyn,3.0,304.0,34.0,3072232.0,3031720001.0,BK78,425.0,,-73.9305517957089,40.69880065191579,"(40.69880065191579, -73.9305517957089)",2018,6
258,2015547-1-DCA,Business,12/31/2023,Active,11/14/2014,Tobacco Retail Dealer,MOHAMMED SALIM SHEIKH & SALEHA DADABHAI SHEIKH,AMAZING STORE & SMOKE SHOP # 4,1728,2ND AVE,,NEW YORK,NY,10128,7184270078,Manhattan,1.0,108.0,5.0,1050138.0,1015520050.0,MN32,154.0,,-73.94998680691845,40.780277721240296,"(40.780277721240296, -73.94998680691845)",2014,10
259,2103638-1-DCA,Business,12/31/2023,Active,01/26/2022,Tobacco Retail Dealer,NEIGHBORHOOD GROCERY AND DELI FOOD CORP,,11523,14TH RD,,COLLEGE POINT,NY,11356,7187990567,Queens,4.0,407.0,19.0,4449821.0,4040500028.0,,,,-73.85197262948425,40.78467565805412,"(40.78467565805412, -73.85197262948425)",2022,2
260,1362869-DCA,Business,12/31/2023,Active,07/16/2010,Tobacco Retail Dealer,ALI AHMED ALI NASER,ADEN DELI & GROCERY,683,FLATBUSH AVE,,BROOKLYN,NY,11225,718-284-7021,Brooklyn,3.0,309.0,40.0,3115642.0,3050450001.0,BK60,79601.0,,-73.9600737574453,40.65652868778601,"(40.65652868778601, -73.9600737574453)",2010,14
261,2037983-1-DCA,Business,12/31/2023,Active,05/20/2016,Tobacco Retail Dealer,MA NEWS GROCERY INC,,7923,NORTHERN BLVD,,JACKSON HEIGHTS,NY,11372,3477014571,Queens,4.0,403.0,25.0,4026843.0,4011750036.0,,,,-73.8878725231229,40.75530352470885,"(40.75530352470885, -73.8878725231229)",2016,8
262,1318628-DCA,Business,12/31/2024,Active,05/18/2009,Tobacco Retail Dealer,BOLLA OPERATING CORP.,KINGS 65 EXXON,605,65TH ST,,BROOKLYN,NY,11220,516-240865,Brooklyn,3.0,310.0,38.0,3144172.0,3058200069.0,BK34,120.0,,-74.01575195808762,40.63460920188178,"(40.63460920188178, -74.01575195808762)",2009,15
263,2111871-2-DCA,Business,12/31/2024,Active,03/24/2023,Tobacco Retail Dealer,STILLWELL CONVENIENCE INC,,1801,STILLWELL AVE,,BROOKLYN,NY,11223,,Brooklyn,3.0,311.0,43.0,3177669.0,3066670001.0,,,,-73.98636229442666,40.602580491542135,"(40.602580491542135, -73.98636229442666)",2023,1
264,2019717-2-DCA,Business,12/31/2024,Active,03/19/2015,Tobacco Retail Dealer,BOLLA OPERATING CORP.,KINGS HENDRIX C-STORE,2816,ATLANTIC AVE,,BROOKLYN,NY,11207,516-240865,Brooklyn,3.0,305.0,37.0,3380467.0,3039630008.0,BK82,1198.0,,-73.89024003817873,40.67661620757461,"(40.676616207574604, -73.89024003817873)",2015,9
265,2115169-2-DCA,Business,12/31/2024,Active,07/18/2023,Tobacco Retail Dealer,MUKTI 590 PETROLEUM INC,,119,BRUCKNER BLVD,,BRONX,NY,10454,7187495864,Bronx,2.0,201.0,8.0,2092088.0,2022610009.0,,,,-73.92168947130523,40.80440462268548,"(40.804404622685475, -73.92168947130523)",2023,1
266,2041877-1-DCA,Business,12/31/2023,Active,08/03/2016,Tobacco Retail Dealer,BRAVO COFFEE & MARKET CORP,,605B,E 187TH ST,,BRONX,NY,10458,914-510-7171,Bronx,2.0,206.0,15.0,2097284.0,2030770001.0,BX06,389.0,,-73.88734942883849,40.85545259532958,"(40.85545259532958, -73.88734942883849)",2016,8
267,1048730-DCA,Business,12/31/2024,Active,10/19/2000,Tobacco Retail Dealer,TAHEER NEWS INC.,,S/W/C,EAST   34 STREET,MADISON AVENUE,NEW YORK,NY,10016,646-542-0870,Manhattan,1.0,105.0,2.0,,,,,,-73.98295812360449,40.74776486500815,"(40.74776486500815, -73.98295812360449)",2000,24
268,2006785-1477-DCA,Business,12/31/2023,Active,04/24/2014,Tobacco Retail Dealer,MIDTOWN QUICK MART CORP,,158,E 45TH ST,,NEW YORK,NY,10017,9145741385,Manhattan,1.0,106.0,4.0,1036180.0,1012990040.0,MN19,92.0,,-73.97389737115385,40.75304131772921,"(40.75304131772921, -73.97389737115385)",2014,10
269,2035759-1-DCA,Business,12/31/2023,Active,04/08/2016,Tobacco Retail Dealer,24 AVE DELI CORP.,,2401,31ST ST,,ASTORIA,NY,11102,718-777-2307,Queens,4.0,401.0,22.0,4017327.0,4008370048.0,QN72,125.0,,-73.91551393152946,40.77217983878906,"(40.77217983878906, -73.91551393152946)",2016,8
270,2115090-2-DCA,Business,12/31/2024,Active,07/14/2023,Tobacco Retail Dealer,BENGEE CONVENIENCE & MORE LLC,,3807,WHITE PLAINS RD,,BRONX,NY,10467,3474467513,Bronx,2.0,212.0,12.0,2057591.0,2046540053.0,,,,-73.86268072548484,40.88381977071283,"(40.88381977071283, -73.86268072548484)",2023,1
271,2080555-1-DCA,Business,12/31/2023,Active,12/10/2018,Tobacco Retail Dealer,CARROLL GARDENS ENTERPRISES INC,,169,3RD AVE,,BROOKLYN,NY,11217,3479873243,Brooklyn,3.0,306.0,33.0,3336082.0,3004070001.0,BK38,127.0,,-73.98363498524382,40.68097120238423,"(40.68097120238423, -73.98363498524382)",2018,6
272,2070228-1-DCA,Business,12/31/2023,Active,04/30/2018,Tobacco Retail Dealer,128 T EDGECOMBE DELI CORP.,,128,EDGECOMBE AVE,,NEW YORK,NY,10030,2129269371,Manhattan,1.0,110.0,9.0,1060736.0,1020430001.0,MN03,259.0,,-73.94507144435816,40.82096057380601,"(40.82096057380601, -73.94507144435816)",2018,6
273,1308070-DCA,Business,12/31/2024,Active,01/26/2009,Tobacco Retail Dealer,BOLLA OPERATING CORP.,KINGS 84 MOBIL,8401,FLATLANDS AVE,,BROOKLYN,NY,11236,516-240865,Brooklyn,3.0,318.0,46.0,3389028.0,3080050006.0,BK50,958.0,,-73.91026185736735,40.63747101504399,"(40.637471015043985, -73.91026185736735)",2009,15
274,2115117-2-DCA,Business,12/31/2024,Active,07/17/2023,Tobacco Retail Dealer,ELEVATED CONVENIENCE CORP.,,13201,LIBERTY AVE,,SOUTH RICHMOND HILL,NY,11419,7184413283,Queens,4.0,410.0,29.0,4204066.0,4095690043.0,,,,-73.81399796653801,40.69064009803972,"(40.69064009803972, -73.81399796653801)",2023,1
275,2046032-1-DCA,Business,12/31/2023,Active,11/30/2016,Tobacco Retail Dealer,NOSTRAND FINEST DELI INC,,792,NOSTRAND AVE,,BROOKLYN,NY,11216,347-725-8563,Brooklyn,3.0,308.0,35.0,3032243.0,3012540037.0,BK61,31702.0,,-73.95035676440332,40.67150590758534,"(40.67150590758534, -73.95035676440332)",2016,8
276,2115125-2-DCA,Business,12/31/2024,Active,07/17/2023,Tobacco Retail Dealer,NATURAL FARM MARKET CORP.,,472,WILSON AVE,,BROOKLYN,NY,11221,718-452-1367,Brooklyn,3.0,304.0,37.0,3077601.0,3033830041.0,,,,-73.91192545666975,40.692842735583575,"(40.692842735583575, -73.91192545666975)",2023,1
277,2108089-1-DCA,Business,12/31/2023,Active,08/11/2022,Tobacco Retail Dealer,"WOODSIDE CANDY STORE, INC.",,6004,WOODSIDE AVE,,WOODSIDE,NY,11377,6466758196,Queens,4.0,402.0,26.0,4031423.0,4013350031.0,,,,-73.90426692946983,40.7450556986872,"(40.7450556986872, -73.90426692946983)",2022,2
278,1313439-DCA,Business,12/31/2023,Active,04/07/2009,Tobacco Retail Dealer,BOLLA OPERATING CORP.,KINGS CONEY BP,2624,CONEY ISLAND AVE,,BROOKLYN,NY,11223,516-240865,Brooklyn,3.0,315.0,47.0,3385666.0,3071840085.0,BK25,390.0,,-73.96078160109391,40.592772934560976,"(40.592772934560976, -73.96078160109391)",2009,15
279,2016156-1-DCA,Business,12/31/2023,Active,12/03/2014,Tobacco Retail Dealer,"DESAI, HIMANSU",,N/W/C,3 AVENUE,EAST   50 STREET,NEW YORK,NY,10022,917-805-5512,Manhattan,1.0,106.0,4.0,,,,,,-73.97075964742145,40.75582373649269,"(40.755823736492694, -73.97075964742145)",2014,10
280,2108090-1-DCA,Business,12/31/2023,Active,08/11/2022,Tobacco Retail Dealer,GHANSHYAM P PATEL TRADING INC.,,3971,61ST ST,,WOODSIDE,NY,11377,6466758196,Queens,4.0,402.0,26.0,4030042.0,4012940036.0,,,,-73.90349422569821,40.74533227370498,"(40.74533227370498, -73.90349422569821)",2022,2
281,1386608-DCA,Business,12/31/2024,Active,04/05/2011,Tobacco Retail Dealer,BOLLA OPERATING CORP.,KINGS ARTHUR KILL C-STORE MOBIL,868,ARTHUR KILL RD,,STATEN ISLAND,NY,10312,516-240865,Staten Island,5.0,503.0,51.0,,,SI54,14607.0,,-74.16938818645869,40.56099067034941,"(40.56099067034941, -74.16938818645869)",2011,13
282,2108111-1-DCA,Business,12/31/2023,Active,08/12/2022,Tobacco Retail Dealer,969 DREAMERS DELI INCORPORATED,,969,SENECA AVE,,RIDGEWOOD,NY,11385,6315659081,Queens,4.0,405.0,34.0,4086219.0,4035730001.0,,,,-73.90244947058483,40.69971897496642,"(40.69971897496642, -73.90244947058483)",2022,2
283,2022099-2-DCA,Business,12/31/2024,Active,05/04/2015,Tobacco Retail Dealer,"7-ELEVEN, INC.",7 Eleven Store #36100H,7937,METROPOLITAN AVE,,MIDDLE VILLAGE,NY,11379,212-368-5659,Queens,4.0,405.0,30.0,4433843.0,4030700090.0,QN21,65703.0,,-73.87272816857916,40.71327379863291,"(40.71327379863291, -73.87272816857916)",2015,9
284,2034997-1-DCA,Business,12/31/2023,Active,03/25/2016,Tobacco Retail Dealer,MADISON DELI EXPRESS INC,,1550,MADISON AVE,,NEW YORK,NY,10029,2129878830,Manhattan,1.0,111.0,8.0,1051507.0,1016100058.0,MN33,168.0,,-73.95014356323244,40.792752601479805,"(40.792752601479805, -73.95014356323244)",2016,8
285,2108003-1-DCA,Business,12/31/2023,Active,08/08/2022,Tobacco Retail Dealer,HARI OM NEWSSTAND INC,,4211,BROADWAY,,NEW YORK,NY,10033,2019513303,Manhattan,1.0,112.0,10.0,1064259.0,1021760017.0,,,,-73.93734600372859,40.84870292796036,"(40.84870292796036, -73.93734600372859)",2022,2
286,2108169-1-DCA,Business,12/31/2023,Active,08/16/2022,Tobacco Retail Dealer,SHREE SAI FOOD MART INC.,,10419,QUEENS BLVD,,FOREST HILLS,NY,11375,3476533767,Queens,4.0,406.0,29.0,4051287.0,4021400001.0,,,,-73.84871693029925,40.723639169256494,"(40.723639169256494, -73.84871693029925)",2022,2
287,2103641-1-DCA,Business,12/31/2023,Active,01/26/2022,Tobacco Retail Dealer,KISSENA BLVD. DELI & GROCERY INC.,,4447,KISSENA BLVD,,FLUSHING,NY,11355,6462555556,Queens,4.0,407.0,20.0,4117219.0,4051920015.0,,,,-73.82159138665818,40.75290062378624,"(40.75290062378624, -73.82159138665818)",2022,2
288,2108072-1-DCA,Business,12/31/2023,Active,08/11/2022,Tobacco Retail Dealer,JIA XIN DELI INC.,,6502,FOREST AVE,,RIDGEWOOD,NY,11385,7184175924,Queens,4.0,405.0,30.0,4083465.0,4034870015.0,,,,-73.90403450570757,40.70848434695527,"(40.70848434695527, -73.90403450570757)",2022,2
289,2110291-1-DCA,Business,12/31/2023,Active,12/19/2022,Tobacco Retail Dealer,BRIANA DELI INC,,6204,68TH AVE,,RIDGEWOOD,NY,11385,7183861988,Queens,4.0,405.0,30.0,4088045.0,4036260027.0,,,,-73.89523826468674,40.705539778299226,"(40.705539778299226, -73.89523826468674)",2022,2
290,2089676-2-DCA,Business,12/31/2024,Active,08/16/2019,Tobacco Retail Dealer,EAST VILLAGE NEW DELI CORP,,115,AVENUE A,,NEW YORK,NY,10009,212-533-2193,Manhattan,1.0,103.0,2.0,1005842.0,1004350035.0,MN22,32.0,,-73.98340017635273,40.72625704695336,"(40.72625704695336, -73.98340017635273)",2019,5
291,2077762-1-DCA,Business,12/31/2023,Active,08/31/2018,Tobacco Retail Dealer,BOLLA OPERATING CORP.,KINGS 2525 VICTORY C-STORE,2525,VICTORY BLVD,,STATEN ISLAND,NY,10314,516-240865,Staten Island,5.0,501.0,50.0,5000000.0,5015210001.0,SI28,251.0,,-74.14739890265366,40.61007340467624,"(40.610073404676235, -74.14739890265366)",2018,6
292,1049652-DCA,Business,12/31/2024,Active,10/24/2000,Tobacco Retail Dealer,COLUMBUS EIGHTY FIRST LLC,,,COLUMBUS AVENUE,WEST   81 STREET,NEW YORK,NY,10024,917-648-6709,Manhattan,1.0,107.0,6.0,,,,,,-73.97453911566674,40.78324184088992,"(40.78324184088992, -73.97453911566674)",2000,24
293,2106440-1-DCA,Business,12/31/2023,Active,06/01/2022,Tobacco Retail Dealer,"MI ESQUINA MARKET, CORP.",,9802,37TH AVE,,CORONA,NY,11368,6463746268,Queens,4.0,403.0,21.0,4043915.0,4017610001.0,,,,-73.86892929753348,40.75205844769946,"(40.75205844769946, -73.86892929753348)",2022,2
294,1286676-DCA,Business,12/31/2024,Active,05/27/2008,Tobacco Retail Dealer,"MYRTLE CONVENIENT DELI, INC.",,6815,MYRTLE AVE,,GLENDALE,NY,11385,718-366-7278,Queens,4.0,405.0,30.0,4089535.0,4036820044.0,QN19,627.0,,-73.88405320751781,40.70168638061972,"(40.70168638061972, -73.88405320751781)",2008,16
295,1453242-DCA,Business,12/31/2024,Active,01/04/2013,Tobacco Retail Dealer,FEATHERBED LANE GROCERY CORP.,,117A,FEATHERBED LN,,BRONX,NY,10452,718-716-0171,Bronx,2.0,205.0,14.0,2008793.0,2028760001.0,,,,-73.91903438782138,40.84612797308396,"(40.84612797308396, -73.91903438782138)",2013,11
296,2104860-2-DCA,Business,12/31/2024,Active,03/30/2022,Tobacco Retail Dealer,DAYLAN DELI CORP,,100,W 168TH ST,,BRONX,NY,10452,6462427046,Bronx,2.0,204.0,16.0,2003290.0,2025150025.0,,,,-73.9243130846888,40.83827345598215,"(40.83827345598215, -73.9243130846888)",2022,2
297,2054450-2-DCA,Business,12/31/2024,Active,06/14/2017,Tobacco Retail Dealer,FIFTH DELI & GROCERY INC,,213,UNION AVE,,BROOKLYN,NY,11211,,Brooklyn,3.0,301.0,34.0,3063527.0,3024520019.0,BK73,527.0,,-73.9504351061387,40.70676251845725,"(40.70676251845725, -73.9504351061387)",2017,7
298,2099051-2-DCA,Business,12/31/2024,Active,06/02/2021,Tobacco Retail Dealer,KHYER AND RAHMAN INC,,10724,CORONA AVE,,CORONA,NY,11368,6467141232,Queens,4.0,404.0,21.0,4431694.0,4019420053.0,,,,-73.85570529744417,40.74355037770647,"(40.74355037770647, -73.85570529744417)",2021,3
299,2058358-2-DCA,Business,12/31/2024,Active,09/18/2017,Tobacco Retail Dealer,"SARKER, MOHAMMED MOHSIN",MOHSIN NEWSSTAND,N/W/C,2 AVENUE,EAST   75 STREET,NEW YORK,NY,10021,646-309-9538,Manhattan,1.0,108.0,4.0,,,,,,-73.95694014606978,40.77075354470721,"(40.77075354470721, -73.95694014606978)",2017,7
300,2049167-2-DCA,Business,12/31/2024,Active,03/06/2017,Tobacco Retail Dealer,FLUSHING NEWS ISLAND INC.,,4002,MAIN ST,,FLUSHING,NY,11354,718-461-7751,Queens,4.0,407.0,20.0,4114119.0,4050360036.0,QN22,871.0,,-73.83008549623956,40.759437738211616,"(40.759437738211616, -73.83008549623956)",2017,7
301,2097931-2-DCA,Business,12/31/2024,Active,03/04/2021,Tobacco Retail Dealer,"7-ELEVEN, INC.",,5901,ROOSEVELT AVE,,WOODSIDE,NY,11377,718-387-0862,Queens,4.0,402.0,26.0,4028346.0,4012300011.0,,,,-73.90541044064342,40.745413461135726,"(40.745413461135726, -73.90541044064342)",2021,3
302,1384882-DCA,Business,12/31/2024,Active,03/16/2011,Tobacco Retail Dealer,NAGLE FUEL CORP,,265,NAGLE AVE,,NEW YORK,NY,10034,201-519-2384,Manhattan,1.0,112.0,10.0,1064706.0,1022160058.0,MN01,293.0,,-73.92051401847569,40.86314616088215,"(40.86314616088215, -73.92051401847569)",2011,13
303,2097294-1-DCA,Business,12/31/2023,Active,12/24/2020,Tobacco Retail Dealer,RS DELI CORP,,4402,25TH AVE,,ASTORIA,NY,11103,7187216930,Queens,4.0,401.0,22.0,4012720.0,4007150041.0,,,,-73.90836977908332,40.76638297451914,"(40.76638297451914, -73.90836977908332)",2020,4
304,2018052-2-DCA,Business,12/31/2024,Active,02/06/2015,Tobacco Retail Dealer,GRAB N GO BUS STOP CORP.,GRAB N GO,1403,ROCKAWAY PKWY,,BROOKLYN,NY,11236,347-446-8376,Brooklyn,3.0,318.0,42.0,3229403.0,3081660018.0,BK50,974.0,,-73.9028816541875,40.64565820832303,"(40.64565820832303, -73.9028816541875)",2015,9
305,1470368-DCA,Business,12/31/2024,Active,07/30/2013,Tobacco Retail Dealer,CUENCA LOPEZ CORP,EL GUAYO DELI GROCERY,2298,AMSTERDAM AVE,,NEW YORK,NY,10033,212-928-0277,Manhattan,1.0,112.0,10.0,1063136.0,1021300044.0,MN36,261.0,,-73.93428966534154,40.84348353994007,"(40.84348353994007, -73.93428966534154)",2013,11
306,1051945-DCA,Business,12/31/2023,Active,11/09/2000,Tobacco Retail Dealer,"AHMED, ABDO & AHMAD, ALI M",A & A EXPRESS DELI & GROCERY,3101,WESTCHESTER AVE,,BRONX,NY,10461,718-863-8400,Bronx,2.0,210.0,13.0,2047390.0,2042350064.0,BX10,300.0,,-73.83050641219809,40.84936119853963,"(40.84936119853963, -73.83050641219809)",2000,24
307,2036987-1-DCA,Business,12/31/2023,Active,05/03/2016,Tobacco Retail Dealer,SALEHA D SHEIKH,AMAZING SMOKE SHOP NO. 1,208A,COLUMBUS AVE,,NEW YORK,NY,10023,718-427-6556,Manhattan,1.0,107.0,6.0,1029648.0,1011410032.0,MN14,153.0,,-73.97998307193598,40.775796446937335,"(40.775796446937335, -73.97998307193598)",2016,8
308,1309817-DCA,Business,12/31/2023,Active,02/23/2009,Tobacco Retail Dealer,BOLLA OPERATING CORP.,KINGS HAMILTON AVE. MOBIL,375,HAMILTON AVE,,BROOKLYN,NY,11231,516-240865,Brooklyn,3.0,306.0,39.0,3008191.0,3004820001.0,BK33,77.0,,-73.9991852694387,40.67319367323885,"(40.67319367323885, -73.9991852694387)",2009,15
309,2099868-2-DCA,Business,12/31/2024,Active,07/02/2021,Tobacco Retail Dealer,T DELI & GRILL CORP,,5401,AVENUE T,,BROOKLYN,NY,11234,7186669762,Brooklyn,3.0,318.0,46.0,3254877.0,3085150009.0,,,,-73.9221734688333,40.61288636303507,"(40.61288636303507, -73.9221734688333)",2021,3
310,2066101-1-DCA,Business,12/31/2023,Active,02/14/2018,Tobacco Retail Dealer,KING TOWER DELI CORP.,,100,LENOX AVE,,NEW YORK,NY,10026,646-863-3604,Manhattan,1.0,110.0,9.0,1051413.0,1015990001.0,MN11,190.0,,-73.95010094345307,40.801431415032646,"(40.801431415032646, -73.95010094345307)",2018,6
311,1070456-DCA,Business,12/31/2024,Active,06/21/2004,Tobacco Retail Dealer,"BARCLAY NEWSSTAND, INC.",,101,BARCLAY ST,,NEW YORK,NY,10007,212-587-5312,Manhattan,1.0,101.0,1.0,1001416.0,1001280002.0,MN24,21.0,,-74.01193982263568,40.713771715173394,"(40.713771715173394, -74.01193982263568)",2004,20
312,2018169-2-DCA,Business,12/31/2024,Active,02/10/2015,Tobacco Retail Dealer,KISSENA ENTERPRISES INC,BP,15411,HORACE HARDING EXPY,,FLUSHING,NY,11367,7183597320,Queens,4.0,407.0,20.0,4146186.0,4067310001.0,QN62,1215.0,,-73.81464556208812,40.73916587960019,"(40.73916587960019, -73.81464556208812)",2015,9
313,1333308-DCA,Business,12/31/2024,Active,09/21/2009,Tobacco Retail Dealer,"CITY SMOKE SHOP, INC.",,851,2ND AVE,,NEW YORK,NY,10017,212-922-0479,Manhattan,1.0,106.0,4.0,1037591.0,1013190029.0,MN19,90.0,,-73.97058444252146,40.75206613423733,"(40.75206613423733, -73.97058444252146)",2009,15
314,1236627-DCA,Business,12/31/2023,Active,08/21/2006,Tobacco Retail Dealer,108 BAGEL CORP.,,10801,ROCKAWAY BEACH DR,,ROCKAWAY PARK,NY,11694,718-634-3200,Queens,4.0,414.0,32.0,4303828.0,4161790009.0,QN10,938.0,,-73.82980040446674,40.58141360158709,"(40.581413601587094, -73.82980040446674)",2006,18
315,2115120-2-DCA,Business,12/31/2024,Active,07/17/2023,Tobacco Retail Dealer,JC DELI & GRILL II GROCERY CORP.,,1004,FLUSHING AVE,,BROOKLYN,NY,11237,3477921575,Brooklyn,3.0,304.0,34.0,3071863.0,3031490001.0,,,,-73.93101182752777,40.70381836213728,"(40.70381836213728, -73.93101182752777)",2023,1
316,1308121-DCA,Business,12/31/2023,Active,01/26/2009,Tobacco Retail Dealer,BOLLA OPERATING CORP.,KINGS MILL BP,6201,AVENUE U,,BROOKLYN,NY,11234,516-240865,Brooklyn,3.0,318.0,46.0,3236931.0,3084050044.0,BK45,698.0,,-73.91381045798647,40.61548520672677,"(40.61548520672677, -73.91381045798647)",2009,15
317,2043798-1-DCA,Business,12/31/2023,Active,09/16/2016,Tobacco Retail Dealer,SMOKE SHOP 163 INC,,9218,GUY R BREWER BLVD,,JAMAICA,NY,11433,646-678-8727,Queens,4.0,412.0,27.0,4215623.0,4101020004.0,QN61,44601.0,,-73.79686745007741,40.70439264860818,"(40.70439264860818, -73.79686745007741)",2016,8
318,1308560-DCA,Business,12/31/2024,Active,02/03/2009,Tobacco Retail Dealer,BOLLA OPERATING CORP.,KINGS CATON & CONEY MOBIL,378,CONEY ISLAND AVE,,BROOKLYN,NY,11218,516-240865,Brooklyn,3.0,307.0,39.0,3124080.0,3053220080.0,BK40,504.0,,-73.97154533528195,40.64873417146325,"(40.64873417146325, -73.97154533528195)",2009,15
319,2021582-2-DCA,Business,12/31/2024,Active,04/23/2015,Tobacco Retail Dealer,"FAMILY DOLLAR STORES OF NEW YORK, INC.","FAMILY DOLLAR STORES OF NEW YORK, INC. #31386",3150,WEBSTER AVE,,BRONX,NY,10467,7573215000,Bronx,2.0,207.0,11.0,2018667.0,2033570028.0,BX43,425.0,,-73.87579044039006,40.872117528173824,"(40.872117528173824, -73.87579044039006)",2015,9
320,1308079-DCA,Business,12/31/2023,Active,01/26/2009,Tobacco Retail Dealer,BOLLA OPERATING CORP.,KINGS KNAPP MOBIL,2402,KNAPP ST,,BROOKLYN,NY,11235,516-240865,Brooklyn,3.0,315.0,48.0,3203760.0,3074290010.0,BK17,626.0,,-73.93295776770353,40.594288923472135,"(40.594288923472135, -73.93295776770353)",2009,15
321,2102017-2-DCA,Business,12/31/2024,Active,10/07/2021,Tobacco Retail Dealer,SPRINGFIELD PARKWAY INC,,18525,N CONDUIT AVE,,SPRINGFIELD GARDENS,NY,11413,7182292083,Queens,4.0,412.0,31.0,4281307.0,4130940063.0,,,,-73.76013532750815,40.6667129668727,"(40.6667129668727, -73.76013532750815)",2021,3
322,1172443-DCA,Business,12/31/2023,Active,06/30/2004,Tobacco Retail Dealer,"STEVE MEXICAN GROCERY, INC",,423,STANHOPE ST,,BROOKLYN,NY,11237,718-386-7696,Brooklyn,3.0,304.0,37.0,3074289.0,3032610030.0,BK77,443.0,,-73.91568864871586,40.70546874156194,"(40.70546874156194, -73.91568864871586)",2004,20
323,2108015-1-DCA,Business,12/31/2023,Active,08/08/2022,Tobacco Retail Dealer,"DELI R US FOOD MARKET, INC",Halal Deli Mart,1475,WEST AVE,,BRONX,NY,10462,7189047341,Bronx,2.0,209.0,18.0,2096637.0,2039377501.0,,,,-73.86146574321697,40.83689488497361,"(40.83689488497361, -73.86146574321697)",2022,2
324,1316459-DCA,Business,12/31/2023,Active,05/01/2009,Tobacco Retail Dealer,JORGE FERNANDEZ,122 SUFFOLK STOP 1 DELI,122,SUFFOLK ST,,NEW YORK,NY,10002,212-777-7492,Manhattan,1.0,103.0,1.0,1004170.0,1003480013.0,MN28,1402.0,,-73.98599212166708,40.719156702116216,"(40.719156702116216, -73.98599212166708)",2009,15
325,2103665-2-DCA,Business,12/31/2024,Active,01/27/2022,Tobacco Retail Dealer,MAIN STREET CONVENIENCE INC,7 ELEVEN STORE #20944F,6958,MAIN ST,,FLUSHING,NY,11367,3479359694,Queens,4.0,408.0,24.0,4143180.0,4066160037.0,,,,-73.82339219907408,40.72984744337515,"(40.72984744337515, -73.82339219907408)",2022,2
326,2072653-1-DCA,Business,12/31/2023,Active,06/05/2018,Tobacco Retail Dealer,JOE'S GROCERY CORP.,,168,LENOX AVE,,NEW YORK,NY,10026,917-325-9549,Manhattan,1.0,110.0,9.0,1053176.0,1017170002.0,MN11,190.0,,-73.94850638478853,40.80361551591349,"(40.80361551591349, -73.94850638478853)",2018,6
327,2066400-1-DCA,Business,12/31/2023,Active,02/21/2018,Tobacco Retail Dealer,BOLLA OPERATING CORP.,KINGS EMPIRE C-STORE,415,EMPIRE BLVD,,BROOKLYN,NY,11225,516-240865,Brooklyn,3.0,309.0,35.0,3034557.0,3013090120.0,BK63,319.0,,-73.94846271996849,40.66407221666803,"(40.66407221666803, -73.94846271996849)",2018,6
328,2103748-1-DCA,Business,12/31/2023,Active,02/02/2022,Tobacco Retail Dealer,"NEW A+ GOURMET DELI, INC",,3924A,108TH ST,,CORONA,NY,11368,3474841816,Queens,4.0,403.0,21.0,4044632.0,4017760039.0,,,,-73.85905600164244,40.751264535962086,"(40.751264535962086, -73.85905600164244)",2022,2
329,2038274-1-DCA,Business,12/31/2023,Active,05/26/2016,Tobacco Retail Dealer,URENA MEAT MARKET & DELI CORP,,1212,GRANT AVE,,BRONX,NY,10456,718-992-3950,Bronx,2.0,204.0,16.0,2002608.0,2024500001.0,BX14,17901.0,,-73.91488289405471,40.83371614971809,"(40.83371614971809, -73.91488289405471)",2016,8
330,1413738-DCA,Business,12/31/2024,Active,11/15/2011,Tobacco Retail Dealer,BOLLA OPERATING CORP.,KINGS BAY & HANNA C-STORE,231,BAY ST,,STATEN ISLAND,NY,10301,516-240865,Staten Island,5.0,501.0,49.0,5106796.0,5004870060.0,SI37,21.0,,-74.07611738101237,40.63647075615246,"(40.63647075615246, -74.07611738101237)",2011,13
331,2080489-1-DCA,Business,12/31/2023,Active,12/06/2018,Tobacco Retail Dealer,HARLEM GROUP J W CORP,,886,GERARD AVE,,BRONX,NY,10452,8628496919,Bronx,2.0,204.0,8.0,,,BX63,195.0,,-73.9251061491997,40.827212779333344,"(40.827212779333344, -73.9251061491997)",2018,6
332,2026042-2-DCA,Business,12/31/2024,Active,07/23/2015,Tobacco Retail Dealer,NEW MATTY'S EXCLUSIVE DELI & GROCERY INC,,14927,JAMAICA AVE,,JAMAICA,NY,11435,7186573354,Queens,4.0,412.0,24.0,4206826.0,4096790080.0,QN61,240.0,,-73.80515910347155,40.7019751147742,"(40.7019751147742, -73.80515910347155)",2015,9
333,2110277-1-DCA,Business,12/31/2023,Active,12/16/2022,Tobacco Retail Dealer,"NEW EVELINA GROCERY, INC.",,1339,FLATBUSH AVE,,BROOKLYN,NY,11226,7182825690,Brooklyn,3.0,317.0,45.0,3120360.0,3052110064.0,,,,-73.9536133589696,40.6384518608987,"(40.6384518608987, -73.9536133589696)",2022,2
334,1308077-DCA,Business,12/31/2023,Active,01/26/2009,Tobacco Retail Dealer,BOLLA OPERATING CORP.,KINGS ONE STOP MOBIL,2228,GERRITSEN AVE,,BROOKLYN,NY,11229,516-240865,Brooklyn,3.0,315.0,46.0,3336727.0,3073700010.0,BK17,570.0,,-73.93444169724053,40.60119294848706,"(40.60119294848706, -73.93444169724053)",2009,15
335,1309824-DCA,Business,12/31/2024,Active,02/26/2009,Tobacco Retail Dealer,,Robert B. Dolin,,WALL STREET,BROAD STREET,NEW YORK,NY,10005,2012324413,Manhattan,1.0,101.0,1.0,,,,,,-74.01067623751081,40.70711578992781,"(40.70711578992781, -74.01067623751081)",2009,15
